FIRE_YEAR,Fire_Date,DISCOVERY_TIME,Days_to_extinguish_fire,CONT_TIME,FIRE_SIZE,FIRE_SIZE_CLASS,LATITUDE,LONGITUDE,STATE,FIPS_CODE,FIPS_NAME
2005,07-15-2003,1635,10,2100,10,C,46.64106,-103.47384,ND,,
2005,07-17-2000,1545,15,1700,10,C,26.18518,-81.25876,FL,,
2005,05-15-1992,1615,9,1716,10,C,42.65,-100.5166667,NE,,
2005,08-29-1993,1356,12,1830,10,C,30.5001,-97.9542,TX,,
2005,07-03-1994,1900,1,2130,10,C,41.76666667,-102.2666667,NE,,
2005,09-06-1998,1400,19,1700,10,C,29.71666667,-94.05,TX,,
2005,07-30-2000,1630,10,1830,10,C,28.216,-96.8833,TX,,
2005,07-01-2001,1600,17,1830,10,C,41.75,-102.5,NE,,
2005,08-21-2002,530,10,1800,10,C,38.13055556,-98.50694444,KS,,
2005,08-03-2002,1830,4,2030,10,C,42.47777778,-100.5122222,NE,,
2005,07-31-2003,1800,7,2300,10,C,38.10833333,-98.58333333,KS,,
2005,07-20-2003,1600,7,2000,10,C,41.39,-102.39,NE,,
2005,06-03-2004,1430,6,1830,10,C,26.155,-81.45305556,FL,,
2005,08-15-2004,1900,8,1915,10,C,41.90472222,-101.5875,NE,,
2005,08-04-2005,1815,5,1915,10,C,34.84583333,-98.73083333,OK,,
2005,08-06-2005,1445,18,1645,10,C,28.88111111,-95.47833333,TX,,
2005,04-04-2006,1400,7,1600,10,C,38.54138889,-76.10944444,MD,,
2005,06-15-2006,1645,11,1900,10,C,42.77722222,-100.7877778,NE,,
2005,06-16-2008,1530,13,1900,10,C,25.95722222,-81.35972222,FL,,
2005,06-19-2008,1400,19,1600,10,C,33.12416667,-83.66388889,GA,,
2005,06-22-2008,1515,18,1645,10,C,35.83361111,-75.73722222,NC,,
2005,06-27-2008,1300,7,1530,10,C,34.5275,-80.16333333,SC,,
2005,06-13-2009,1300,9,1645,10,C,62.0336,-161.7667,AK,,
2006,06-22-1992,1535,8,2105,10,C,32.11571921,-110.0718006,AZ,3,Cochise
2006,08-05-1993,1559,17,2100,10,C,33.83589378,-112.439996,AZ,13,Maricopa
2006,08-20-2002,,3,,10,C,44.57631,-120.36363,OR,69,Wheeler
2006,07-23-1994,,13,,10,C,44.77283,-119.3716,OR,23,Grant
2006,05-18-1992,1629,9,1930,10,C,33.57524317,-112.0750668,AZ,13,Maricopa
2006,05-17-1997,,5,,10,C,44.49822,-120.83676,OR,31,Jefferson
2006,08-28-1994,,18,,10,C,45.82714,-117.65716,OR,63,Wallowa
2006,05-23-1994,1451,14,,10,C,32.73570691,-110.4896359,AZ,21,Pinal
2006,07-08-2003,,14,,10,C,44.84575,-117.29703,OR,1,Baker
2006,08-10-1995,,12,,10,C,44.6463,-119.62081,OR,23,Grant
2007,06-21-1992,1314,10,1545,10,C,36.7355954,-113.6383622,AZ,15,Mohave
2007,07-13-1995,1203,6,1600,10,C,35.16467335,-113.6680869,AZ,15,Mohave
2007,08-10-2006,,4,,10,C,44.775,-119.54233,OR,23,Grant
2007,08-22-2006,,8,,10,C,45.02217,-118.88167,OR,59,Umatilla
2008,07-20-2005,1715,6,2230,10,C,37.97555556,-118.9277778,CA,,
2008,08-17-2000,1745,12,1930,10,C,42.20888889,-112.2172222,ID,71,Oneida
2008,08-08-2001,1651,7,1930,10,C,32.73805556,-116.3805556,CA,,
2008,08-13-2001,1200,11,1800,10,C,43.35415,-116.22822,ID,1,Ada
2008,08-13-2001,1330,7,1800,10,C,47.4898,-115.7214,ID,,
2008,08-02-2004,1630,12,1900,10,C,45.9228,-116.3931,ID,,
2008,07-05-1996,1530,8,2359,10,C,47.2974,-114.3426,MT,,
2008,08-23-1994,1200,15,2359,10,C,45.25,-107.1506,MT,,
2008,07-17-1992,,10,,10,C,42.32446,-123.60964,OR,33,Josephine
2009,05-11-2007,1830,4,2020,10,C,31.063455,-87.437609,AL,53,Escambia
2009,05-14-2007,1300,13,1445,10,C,33.453236,-88.24919,AL,107,Pickens
2009,06-11-2007,1547,10,1830,10,C,32.36483,-86.511743,AL,1,Autauga
2009,06-06-2007,1539,6,1711,10,C,32.834737,-85.947417,AL,123,Tallapoosa
2009,06-15-2007,746,18,1028,10,C,33.356712,-87.101326,AL,73,Jefferson
2009,06-30-2007,1657,20,1859,10,C,33.112179,-85.921819,AL,27,Clay
2009,08-19-2007,1245,17,1519,10,C,32.912334,-85.463929,AL,17,Chambers
2009,08-25-2007,1857,3,2109,10,C,33.023378,-86.363699,AL,37,Coosa
2009,07-10-1998,850,8,1209,10,C,30.45886182,-88.80613643,MS,59,Jackson
2009,07-08-1998,436,4,745,10,C,30.56327668,-89.76414703,MS,109,Pearl River
2009,08-25-1999,1730,3,2000,10,C,34.61111818,-89.70259758,MS,137,Tate
2009,08-29-1999,1330,10,1600,10,C,34.61125102,-89.70651536,MS,137,Tate
2009,08-30-1999,1730,3,2000,10,C,34.56307623,-89.740491,MS,137,Tate
2009,05-06-2010,1435,8,2100,10,C,45.8294444,-88.6488889,WI,37,Florence
2009,06-27-2010,1230,5,2200,10,C,36.4177778,-105.783611,NM,55,Taos
2009,07-19-2010,1558,15,2000,10,C,48.39569,-112.85818,MT,,
2009,09-02-2010,2000,11,2300,10,C,35.2711,-98.855,OK,,
2009,06-16-2010,1335,17,1335,10,C,65.6692,-153.4183,AK,,
2009,08-16-2010,1245,14,1515,10,C,40.3017,-111.9831,UT,49,Utah
2009,08-25-2003,1920,3,1920,10,C,34.43183333,-95.70349998,OK,127,Pushmataha
2009,08-22-2010,2240,3,2240,10,C,33.90849997,-94.4805,OK,89,McCurtain
2009,08-24-2010,1740,18,1740,10,C,33.90849997,-94.48033333,OK,89,McCurtain
2009,04-19-2010,1702,4,1702,10,C,40.3436,-104.5282,CO,123,Weld
2009,06-02-2002,1220,16,1220,10,C,32.4921,-81.6074,GA,31,Bulloch
2009,06-01-2009,1630,13,1630,10,C,36.2469,-104.5704,NM,7,Colfax
2009,06-10-2009,1518,18,1518,10,C,32.773278,-108.192806,NM,17,Grant
2009,06-22-2009,1550,1,1550,10,C,34.027338,-104.038796,NM,5,Chaves
2009,07-17-2009,1400,6,1400,10,C,35.498056,-104.504444,NM,47,San Miguel
2009,10-20-2009,1730,8,1730,10,C,34.742414,-103.909206,NM,37,Quay
2010,08-02-2008,2155,1,2155,10,C,44.57931532,-106.0985188,WY,,
2010,07-20-2006,1615,13,1814,10,C,41.10083853,-104.4378249,WY,,
2010,07-23-2005,1450,17,1901,10,C,41.10543375,-104.2737801,WY,,
2010,07-19-2002,2210,6,,10,C,44.24605282,-105.7049806,WY,,
2010,04-19-1995,1845,4,1845,10,C,39.19202779,-81.03350039,WV,85,Ritchie
2010,05-03-1992,2000,12,2000,10,C,39.40460419,-80.76432253,WV,95,Tyler
2010,10-05-2007,2119,7,,10,C,36.5887,-84.11588,TN,13,Campbell
2010,08-05-2010,1723,17,1723,10,C,30.3158,-85.8059,FL,5,Bay
2010,08-07-2010,1335,15,1335,10,C,30.4796,-85.4797,FL,5,Bay
2010,08-21-2010,1806,16,1806,10,C,27.1679,-80.3747,FL,85,Martin
2010,08-04-2010,,8,,10,C,29.5556,-81.4388,FL,35,Flagler
2010,05-07-2010,1645,10,1645,10,C,27.1515,-80.9376,FL,43,Glades
2010,06-03-2010,1530,4,1530,10,C,27.0123,-81.5248,FL,43,Glades
2010,06-16-2010,2020,10,2020,10,C,26.8206,-81.9143,FL,15,Charlotte
2010,06-17-2010,1655,11,1655,10,C,26.7884,-81.8544,FL,15,Charlotte
2010,06-13-2010,1853,4,1853,10,C,29.2148,-83.0139,FL,75,Levy
2010,06-16-2010,1541,13,1541,10,C,28.5615,-81.0493,FL,95,Orange
2010,06-17-2010,1915,10,1915,10,C,27.3462,-80.3256,FL,111,St. Lucie
2010,06-19-2010,1730,4,1730,10,C,27.0178,-82.0368,FL,15,Charlotte
2010,06-22-2010,1800,18,1800,10,C,27.8152,-82.1245,FL,57,Hillsborough
2010,06-21-2010,1730,9,1730,10,C,29.4026,-82.3693,FL,83,Marion
2010,06-26-2010,2043,10,2043,10,C,29.2736,-82.6184,FL,75,Levy
2010,08-05-2009,1025,16,1512,10,C,45.955659,-116.479896,ID,49,Idaho
2010,07-08-1993,1830,1,,10,C,31.1553,-82.3175,GA,299,Ware
2009,08-16-2002,1526,1,1526,10.01,C,31.84923515,-81.79483416,GA,251,Screven
2010,05-16-1995,830,15,1100,10.03,C,32.6979,-81.9512,GA,165,Jenkins
2009,07-02-2002,1955,13,1955,10.06,C,32.68542638,-82.89433743,GA,175,Laurens
2009,07-17-2002,1610,7,1610,10.08,C,32.25127745,-81.5042604,GA,31,Bulloch
2008,05-16-1998,1815,6,1845,10.1,C,38.49389,-109.43528,UT,,
2009,06-15-2002,1724,17,1724,10.1,C,30.6413,-83.0734,GA,101,Echols
2010,08-20-2010,1645,15,1645,10.1,C,29.0334,-81.0838,FL,127,Volusia
2009,07-17-2000,1520,7,1520,10.2,C,32.3729,-84.0762,GA,193,Macon
2010,06-20-1997,1645,8,1900,10.2,C,33.0581,-82.7656,GA,303,Washington
2009,07-23-2000,1630,4,1630,10.21,C,30.9323,-81.7397,GA,39,Camden
2009,08-21-2002,1406,13,1406,10.25,C,31.80767488,-82.42304263,GA,303,Washington
2010,07-25-1994,1830,20,,10.25,C,30.7437,-81.5024,GA,39,Camden
2009,07-06-2002,1515,1,1515,10.27,C,33.62845466,-82.5223358,GA,189,McDuffie
2009,09-14-2010,1615,9,2000,10.3,C,41.51444444,-112.1052778,UT,,
2010,07-31-1992,2000,19,2210,10.31,C,32.0299,-83.5316,GA,315,Wilcox
2010,07-08-1993,1725,18,1839,10.37,C,34.0525,-83.3288,GA,195,Madison
2009,08-17-2002,1546,14,1546,10.38,C,31.83827672,-84.25265907,GA,177,Lee
2007,07-07-2007,,17,,10.4,C,42.06817,-121.57767,OR,35,Klamath
2008,08-23-2007,1200,19,1800,10.4,C,43.26903,-116.18179,ID,1,Ada
2009,09-04-2010,1359,2,1518,10.4,C,45.9264,-105.3022,MT,17,Custer
2010,08-02-2010,1420,9,1420,10.4,C,29.3606,-81.647,FL,107,Putnam
2009,07-29-2010,1420,1,1547,10.44,C,30.2191667,-82.6069444,FL,23,Columbia
2008,08-24-2007,1200,8,1800,10.5,C,43.24037,-116.15587,ID,,
2010,08-02-2010,1600,11,1600,10.5,C,27.3016,-80.5086,FL,111,St. Lucie
2010,07-15-1995,1600,18,1950,10.5,C,33.9331,-85.2704,GA,233,Polk
2010,06-25-2010,601,12,1000,10.5,C,34.4995,-77.91133333,NC,141,Pender
2009,07-07-2001,1000,9,1000,10.51,C,31.6865,-81.6942,GA,183,Long
2010,05-17-1995,1625,11,1744,10.51,C,32.6469,-83.2306,GA,319,Wilkinson
2009,07-24-2000,1422,5,1422,10.56,C,31.7381,-82.3171,GA,1,Appling
2009,06-05-2002,1505,12,1505,10.6,C,32.3892,-81.4867,GA,103,Effingham
2010,07-07-1995,1940,1,2135,10.6,C,32.4417,-84.9068,GA,215,Muscogee
2008,08-06-2003,2040,14,2359,10.7,C,43.38361111,-104.0347222,SD,47,Fall River
2009,07-25-2002,1323,5,1323,10.79,C,32.65491668,-82.88409857,GA,175,Laurens
2010,05-02-1993,1630,3,1746,10.8,C,31.2411,-82.5174,GA,299,Ware
2009,05-18-2001,1430,6,1430,10.84,C,32.0303,-84.9635,GA,259,Stewart
2009,12-23-2001,130,10,130,10.85,C,34.4641,-84.1367,GA,85,Dawson
2010,07-15-1995,1545,16,1721,10.85,C,31.3098,-83.135,GA,19,Berrien
2009,06-13-2002,912,17,912,10.86,C,32.9725,-83.0505,GA,303,Washington
2010,05-13-1993,1500,19,2050,10.87,C,32.2525,-82.8021,GA,175,Laurens
2008,06-28-2005,1015,8,2000,10.9,C,37.22305556,-113.4652778,UT,53,Washington
2009,07-18-2010,1141,20,1455,10.9,C,44.8228,-100.9474,SD,,
2005,09-01-1999,1500,1,1730,11,C,41.98333333,-103.6,NE,,
2005,08-03-2000,1813,10,1917,11,C,39.8658,-104.7954,CO,,
2005,07-04-2009,1615,6,2030,11,C,34.80194444,-98.80388889,OK,,
2006,10-06-1992,,6,,11,C,42.31885,-122.54929,OR,29,Jackson
2008,08-26-2000,1400,3,1630,11,C,32.285,-89.53361111,MS,123,Scott
2009,07-12-2009,2125,2,2236,11,C,32.226712,-87.804095,AL,91,Marengo
2009,06-01-2006,1345,11,1528,11,C,33.601565,-87.675233,AL,57,Fayette
2009,08-04-2010,1502,10,2006,11,C,40.25566,-112.82944,UT,45,Tooele
2009,09-07-2010,1334,5,2000,11,C,42.66169,-108.50311,WY,,
2009,06-18-2000,1540,18,1540,11,C,30.9327,-82.9357,GA,65,Clinch
2010,08-08-2005,1725,6,,11,C,43.99976994,-104.380709,WY,,
2010,08-23-2007,2015,6,,11,C,35.541667,-88.15,TN,39,Decatur
2010,08-05-2010,1801,2,1801,11,C,28.4946,-80.9375,FL,95,Orange
2010,09-25-2010,1139,4,1139,11,C,30.1981,-85.284,FL,45,Gulf
2010,06-03-2010,1540,7,1540,11,C,28.3744,-81.0538,FL,95,Orange
2010,06-16-2010,,17,,11,C,30.1977,-81.5303,FL,31,Duval
2010,06-21-2010,1549,17,1549,11,C,30.149,-81.4862,FL,31,Duval
2010,06-16-2010,1546,10,1546,11,C,30.1655,-81.4845,FL,31,Duval
2010,06-22-2010,,15,,11,C,29.6904,-81.3331,FL,109,St. Johns
2010,08-02-2010,,11,,11,C,31.341287,-87.675001,AL,99,Monroe
2010,07-11-1993,1200,7,1928,11,C,34.91,-84.8659,GA,313,Whitfield
2009,06-16-2000,1947,9,1947,11.02,C,32.115,-81.4287,GA,29,Bryan
2009,07-18-2000,1605,8,1605,11.05,C,31.2246,-84.7154,GA,201,Miller
2010,07-18-1996,1700,19,2125,11.11,C,33.4355,-83.7685,GA,159,Jasper
2009,07-25-2002,1509,16,1509,11.13,C,32.46043215,-82.66939828,GA,283,Treutlen
2009,06-14-2000,1240,1,1240,11.14,C,31.8582,-82.4579,GA,161,Jeff Davis
2009,07-20-2000,2150,11,2150,11.14,C,32.5786,-84.1979,GA,269,Taylor
2009,05-31-2001,1211,16,1211,11.22,C,30.6929,-83.5579,GA,27,Brooks
2007,06-22-2008,,12,,11.3,C,44.76167,-119.58667,OR,23,Grant
2009,06-13-2006,1625,6,1815,11.3,C,31.253523,-87.303026,AL,53,Escambia
2009,08-17-2010,1549,5,2218,11.3,C,42.1786,-122.8619,OR,29,Jackson
2009,06-23-2000,1625,20,1625,11.33,C,33.1613,-83.7901,GA,159,Jasper
2010,05-17-1995,1115,14,1251,11.33,C,32.2695,-82.236,GA,279,Toombs
2010,08-11-1992,300,5,1645,11.39,C,31.0528,-83.4168,GA,75,Cook
2010,07-23-1993,1800,13,1955,11.47,C,33.2981,-82.7875,GA,141,Hancock
2009,02-08-2000,1219,8,1219,11.48,C,30.9329,-83.6567,GA,27,Brooks
2005,07-23-1992,1120,8,1330,11.5,C,29.66666667,-94.18333333,TX,,
2008,06-14-2004,1432,8,,11.5,C,67.6132,-162.409,AK,,
2010,07-17-1993,1700,13,2315,11.5,C,31.4467,-82.3173,GA,229,Pierce
2009,05-14-2002,1147,2,1147,11.52,C,31.6179,-81.6747,GA,183,Long
2010,07-20-1995,1330,20,1740,11.52,C,32.8181,-82.6627,GA,303,Washington
2009,05-15-2002,1307,1,1307,11.53,C,31.9782,-82.6394,GA,309,Wheeler
2009,08-18-2000,2119,9,2119,11.59,C,32.9553,-82.704,GA,303,Washington
2005,06-09-2006,1300,2,2030,11.6,C,25.9242,-80.8617,FL,,
2009,07-16-2007,1758,12,1758,11.6,C,32.8765,-111.0159,AZ,,
2009,08-02-2002,1530,12,1530,11.6,C,33.77701952,-82.67938297,GA,317,Wilkes
2009,05-03-2003,1430,15,1430,11.6,C,41.33888889,-78.09027778,PA,23,Cameron
2010,07-04-1996,1744,2,2140,11.63,C,31.7559,-84.277,GA,177,Lee
2010,05-28-1995,1300,3,2300,11.68,C,32.8527,-83.5267,GA,169,Jones
2009,04-03-2002,1932,18,1932,11.72,C,33.4699,-83.8708,GA,217,Newton
2009,08-19-2000,1510,2,1510,11.76,C,33.0928,-84.1373,GA,171,Lamar
2007,08-08-2008,,15,,11.8,C,44.84,-119.88889,OR,69,Wheeler
2008,08-23-2007,1200,15,1800,11.8,C,43.24184,-116.17882,ID,1,Ada
2009,07-07-2000,930,15,930,11.85,C,31.8412,-83.0415,GA,271,Telfair
2008,08-09-2008,1430,1,2200,11.9,C,46.68611111,-103.7152778,ND,33,Golden Valley
2009,06-08-2002,1400,2,1400,11.96,C,32.9725,-83.0505,GA,303,Washington
2005,08-26-2003,900,17,2030,12,C,43.58233,-103.465,SD,,
2005,06-30-2004,1530,13,2359,12,C,26.1564,-81.1875,FL,,
2005,08-13-2003,1500,9,1900,12,C,42.41555556,-100.3772222,NE,,
2005,07-07-2006,1700,4,1845,12,C,43.04388889,-101.6094444,SD,,
2005,09-20-2007,2100,17,2230,12,C,38.26027778,-98.5175,KS,,
2006,08-12-1993,1441,17,,12,C,31.71927896,-110.4701332,AZ,23,Santa Cruz
2006,07-13-1995,2245,7,,12,C,34.05734655,-89.4125721,MS,13,Calhoun
2006,09-13-1995,845,9,1020,12,C,31.82276425,-88.71841675,MS,153,Wayne
2006,08-02-1999,,16,,12,C,44.75549,-119.51337,OR,23,Grant
2006,05-12-1992,1300,7,1445,12,C,45.90000132,-68.46666596,ME,19,Penobscot
2007,08-10-1995,1656,20,1907,12,C,36.61254275,-109.8512391,AZ,1,Apache
2008,07-30-2000,1300,1,1700,12,C,32.84583333,-87.13333333,AL,,
2008,02-15-2001,800,13,1200,12,C,32.80527778,-87.1625,AL,,
2008,07-02-2002,1230,1,2100,12,C,34.81166667,-111.3033333,AZ,5,Coconino
2009,08-23-2007,1718,5,2025,12,C,33.604105,-85.542632,AL,29,Cleburne
2009,08-24-2007,1501,20,1932,12,C,33.495182,-86.490754,AL,117,Shelby
2009,08-24-2007,2035,3,2359,12,C,34.498947,-85.908737,AL,49,DeKalb
2009,06-18-2008,1044,18,1531,12,C,33.976153,-85.711925,AL,19,Cherokee
2009,03-14-2005,1259,6,1700,12,C,34.399912,-85.590837,AL,19,Cherokee
2009,08-06-2006,1945,15,2145,12,C,33.746744,-87.71227,AL,57,Fayette
2009,07-25-2010,1200,4,2000,12,C,40.8580556,-121.286944,CA,35,Lassen
2009,07-31-2010,2115,13,2230,12,C,48.2856,-108.4935,MT,,
2009,08-23-2003,1555,3,1555,12,C,33.95516669,-94.74316667,OK,89,McCurtain
2009,07-17-2009,2345,4,2345,12,C,34.54583333,-94.97716668,OK,127,Pushmataha
2009,06-18-2000,1446,17,1446,12,C,31.2581,-81.9574,GA,25,Brantley
2009,06-27-2000,1415,8,1415,12,C,33.8808,-82.5235,GA,181,Lincoln
2009,06-14-2009,1745,14,1745,12,C,31.998611,-108.369167,NM,17,Grant
2010,08-02-2005,902,9,1532,12,C,41.65363117,-104.8545384,WY,,
2010,04-11-2001,1539,9,1539,12,C,37.50720348,-81.72296236,WV,109,Wyoming
2010,08-03-2010,1017,8,1017,12,C,29.5266,-81.4408,FL,35,Flagler
2010,06-22-2010,1420,11,1420,12,C,27.906,-81.3447,FL,105,Polk
2010,06-11-1993,2025,2,2230,12,C,30.5725,-82.1197,GA,49,Charlton
2010,07-26-2010,1500,3,1615,12,C,35.2,-79.35,NC,125,Moore
2010,07-22-1993,1500,14,1605,12.05,C,33.4523,-82.4197,GA,189,McDuffie
2010,05-29-1995,1200,7,1431,12.18,C,33.453,-84.711,GA,77,Coweta
2009,08-24-2002,1325,9,1325,12.2,C,31.10199187,-82.07269899,GA,25,Brantley
2009,05-28-2000,1610,13,1610,12.24,C,31.6695,-82.1564,GA,1,Appling
2009,06-03-2002,1645,11,1645,12.25,C,31.1381,-81.918,GA,25,Brantley
2010,07-11-1993,1415,1,1710,12.35,C,31.8245,-84.5992,GA,273,Terrell
2009,06-04-2002,1154,6,1154,12.4,C,31.8237,-81.9749,GA,267,Tattnall
2009,02-28-2000,1520,14,1520,12.41,C,30.898,-81.72,GA,39,Camden
2009,05-29-2010,1300,14,1400,12.43,C,30.3,-84.425,FL,129,Wakulla
2009,08-01-2001,1800,6,1800,12.46,C,32.1667,-82.539,GA,209,Montgomery
2005,06-11-2008,1400,7,1600,12.5,C,30.62166667,-82.49416667,GA,,
2010,08-04-2010,,9,,12.5,C,31.136844,-87.268025,AL,53,Escambia
2009,05-31-2002,1342,20,1342,12.54,C,32.5951,-82.053,GA,107,Emanuel
2009,07-23-2000,1417,10,1417,12.57,C,31.2925,-82.5975,GA,299,Ware
2009,05-13-2002,1556,14,1556,12.6,C,31.4295,-81.8965,GA,305,Wayne
2010,06-12-1994,1645,5,1723,12.66,C,32.253,-84.5614,GA,197,Marion
2010,07-19-1995,1330,14,1830,12.66,C,32.5101,-84.5019,GA,197,Marion
2009,06-03-2002,1820,17,1820,12.71,C,31.7552,-82.2567,GA,1,Appling
2009,08-08-2010,1519,15,1900,12.8,C,41.79514,-109.76761,WY,37,Sweetwater
2009,06-03-2002,2212,6,2212,12.8,C,31.6868,-82.5783,GA,161,Jeff Davis
2008,08-23-2007,1200,12,1800,12.9,C,43.26806,-116.1858,ID,,
2008,08-24-2007,1200,6,1800,12.9,C,43.26524,-116.17153,ID,1,Ada
2010,07-17-1995,1100,3,1500,12.92,C,32.3559,-84.5012,GA,197,Marion
2009,08-06-2002,1758,5,1758,12.94,C,32.54258871,-83.78456427,GA,225,Peach
2009,06-23-2000,1433,14,1433,12.96,C,34.0866,-82.7719,GA,105,Elbert
2009,08-25-2002,1525,14,1525,12.96,C,32.96979823,-83.20635902,GA,319,Wilkinson
2005,07-05-1994,1605,10,2350,13,C,33.433,-104.4,NM,,
2005,08-03-2003,1300,8,1800,13,C,38.29,-98.469,KS,,
2005,08-12-2006,1800,9,2000,13,C,45.22138889,-98.74138889,SD,,
2005,08-08-2008,700,9,715,13,C,46.43777778,-119.4977778,WA,,
2008,06-09-2001,1330,19,2100,13,C,38.07777778,-108.3152778,CO,113,San Miguel
2009,07-10-2010,1200,3,1200,13,C,67.8225,-158.4753,AK,,
2009,07-02-2010,1350,6,2000,13,C,45.2231,-106.7844,MT,3,Big Horn
2009,06-21-2010,1900,7,2100,13,C,35.5808,-101.6975,TX,,
2009,07-17-2009,2200,7,2200,13,C,34.32666667,-95.0845,OK,127,Pushmataha
2009,06-19-2000,1915,7,1915,13,C,31.5151,-81.7557,GA,305,Wayne
2009,08-13-2002,1430,20,1430,13,C,44.32698,-84.35881,MI,129,Ogemaw
2010,07-29-2010,1445,2,1445,13,C,27.0999,-82.327,FL,115,Sarasota
2010,06-27-2010,1645,4,1645,13,C,28.2623,-82.5506,FL,101,Pasco
2010,06-15-2010,,8,,13,C,33.377134,-87.449221,AL,125,Tuscaloosa
2010,07-21-2010,,14,,13,C,32.053469,-85.26696,AL,5,Barbour
2010,07-10-1992,1700,14,,13,C,31.0697,-82.4972,GA,299,Ware
2009,08-18-2000,2030,4,2030,13.03,C,31.6871,-83.4932,GA,287,Turner
2009,06-04-2000,1340,19,1340,13.04,C,33.075,-81.9701,GA,33,Burke
2009,08-09-2000,925,10,925,13.07,C,30.898,-81.5208,GA,39,Camden
2009,08-19-2000,1800,20,1800,13.11,C,32.2702,-84.7637,GA,53,Chattahoochee
2009,06-04-2000,1700,15,1700,13.15,C,32.9894,-82.3168,GA,163,Jefferson
2010,07-31-1993,1300,1,1445,13.18,C,32.1497,-82.9025,GA,91,Dodge
2009,06-29-2006,1518,20,1925,13.2,C,31.565096,-85.268372,AL,67,Henry
2008,08-23-2007,1200,20,1800,13.3,C,43.25913,-116.17801,ID,1,Ada
2009,05-16-2010,1600,6,1840,13.3,C,36.4533333,-106.091389,NM,39,Rio Arriba
2009,07-13-2007,1926,2,1926,13.3,C,31.7628,-109.7904,AZ,,
2010,09-24-1997,1000,10,1435,13.3,C,30.5553,-82.1198,GA,49,Charlton
2010,05-18-1998,1645,3,2030,13.3,C,30.624,-82.5964,GA,101,Echols
2009,07-01-2000,1724,19,1724,13.33,C,31.8928,-83.7337,GA,81,Crisp
2009,05-13-2001,1932,13,1932,13.48,C,32.0302,-84.4795,GA,307,Webster
2009,08-26-2001,1240,18,1240,13.5,C,30.9841,-82.8761,GA,65,Clinch
2010,04-26-2010,1503,17,1503,13.5,C,29.3705,-82.5829,FL,75,Levy
2010,06-29-2010,,1,,13.5,C,29.383,-81.5611,FL,107,Putnam
2010,07-25-1993,1500,5,1745,13.53,C,31.961,-82.599,GA,309,Wheeler
2009,06-01-2010,1447,15,1827,13.6,C,46.3011111,-86.6661111,MI,3,Alger
2010,06-12-1993,2300,13,,13.6,C,31.4123,-82.0168,GA,305,Wayne
2010,07-28-1993,1815,13,1932,13.6,C,32.9728,-83.9132,GA,207,Monroe
2009,07-13-2000,1440,6,1440,13.61,C,31.0523,-81.5792,GA,39,Camden
2009,07-07-2000,2053,3,2053,13.69,C,33.0242,-83.7907,GA,207,Monroe
2007,08-02-2009,,9,,13.7,C,44.87361,-120.09778,OR,69,Wheeler
2009,06-26-2000,525,15,525,13.75,C,31.1897,-82.5374,GA,299,Ware
2005,08-08-2006,1557,10,1830,13.8,C,43.7642,-102.3792,SD,,
2007,03-23-1994,1923,3,2025,13.8,C,43.19329992,-90.65939853,WI,103,Richland
2009,08-09-2010,1630,1,2005,13.8,C,43.8963889,-102.688611,SD,103,Pennington
2009,06-03-2002,1714,19,1714,13.86,C,32.4586,-84.2585,GA,269,Taylor
2005,05-11-2003,1400,14,1930,13.9,C,41.91069,-109.84911,WY,,
2009,08-01-2002,1653,14,1653,13.9,C,33.93847409,-82.60897701,GA,181,Lincoln
2009,05-14-2002,1730,18,1730,13.93,C,33.5039,-83.2399,GA,133,Greene
2009,08-01-2002,1530,19,1530,13.96,C,33.58624374,-82.4321593,GA,189,McDuffie
2005,07-20-2005,1700,10,2130,14,C,43.8336,-102.255,SD,,
2005,07-17-2006,1530,15,1630,14,C,44.34805556,-98.37666667,SD,,
2006,07-16-2003,,3,,14,C,45.93594,-118.19292,OR,59,Umatilla
2007,05-08-1992,1242,11,1753,14,C,32.5157033,-110.9220762,AZ,19,Pima
2007,08-07-2008,,6,,14,C,44.63472,-117.59056,OR,1,Baker
2008,04-16-2001,1500,20,1750,14,C,34.62666667,-85.16,GA,295,Walker
2009,07-27-2009,1910,20,1910,14,C,31.07165,-85.74736,AL,61,Geneva
2009,07-18-2006,2105,19,2325,14,C,33.34976,-88.195884,AL,107,Pickens
2009,07-20-2006,1714,14,1835,14,C,33.151828,-85.524837,AL,111,Randolph
2009,07-15-2006,1730,9,2030,14,C,31.282532,-87.21762,AL,35,Conecuh
2009,06-27-2010,1600,5,1700,14,C,33.6394444,-108.654444,NM,3,Catron
2009,07-26-2010,1830,9,1830,14,C,34.213,-95.28816668,OK,127,Pushmataha
2009,08-21-2002,1450,16,1450,14,C,33.14812345,-82.33386457,GA,163,Jefferson
2009,08-04-2002,1217,15,1217,14,C,39.82083333,-77.50055556,PA,55,Franklin
2010,08-17-2010,1730,13,1730,14,C,28.5242,-81.0953,FL,95,Orange
2010,08-15-2010,1730,12,1730,14,C,28.3138,-80.9102,FL,97,Osceola
2008,08-24-2007,1200,7,1800,14.1,C,43.24414,-116.15714,ID,1,Ada
2010,03-18-1997,2000,3,2228,14.15,C,31.738,-82.0356,GA,305,Wayne
2005,08-18-2004,1500,15,2000,14.2,C,48.48055556,-117.7152778,WA,,
2009,05-03-2002,1025,17,1025,14.2,C,30.8641,-82.7361,GA,65,Clinch
2009,05-12-2001,1600,11,1600,14.28,C,30.6241,-82.9541,GA,101,Echols
2009,08-19-2001,1135,17,1135,14.28,C,32.047,-83.35,GA,315,Wilcox
2005,08-29-2004,1330,17,1900,14.3,C,26.04583333,-97.44611111,TX,,
2009,06-04-2000,1919,13,1919,14.3,C,32.2864,-81.3865,GA,103,Effingham
2010,06-11-1996,1200,18,1500,14.38,C,32.1663,-81.2666,GA,51,Chatham
2008,08-08-2003,2200,16,2230,14.5,C,43.41666667,-103.0147222,SD,47,Fall River
2009,04-06-2005,1415,13,1546,14.5,C,30.62681,-87.438136,AL,3,Baldwin
2009,07-12-2000,1710,15,1710,14.63,C,31.704,-82.8195,GA,161,Jeff Davis
2009,10-14-2010,1400,8,1857,14.7,C,45.45,-108.5085,MT,,
2009,06-26-2000,1703,5,1703,14.73,C,32.3385,-83.8131,GA,153,Houston
2010,08-06-1996,100,14,1349,14.74,C,31.0353,-82.2178,GA,299,Ware
2009,07-16-2000,1224,4,1224,14.79,C,32.7674,-84.9301,GA,145,Harris
2009,06-10-2002,1550,3,1550,14.82,C,32.5098,-83.2855,GA,23,Bleckley
2009,06-06-2000,1400,20,1400,14.84,C,32.2863,-81.3057,GA,103,Effingham
2009,03-13-2000,1625,18,1625,14.85,C,32.6813,-83.8121,GA,79,Crawford
2005,09-07-2007,1030,18,1030,15,C,26.0922,-81.3356,FL,,
2005,09-07-2007,1030,3,1030,15,C,26.1061,-81.3269,FL,,
2005,07-15-1993,1330,15,1630,15,C,31.783,-111.533,AZ,,
2005,07-03-1994,1900,7,2100,15,C,41.71666667,-102.2,NE,,
2005,08-16-1994,1640,1,2000,15,C,29.166,-95.1833,TX,,
2005,08-21-1994,1000,9,1430,15,C,29.7,-93.9333,TX,,
2005,04-25-1994,1130,12,1830,15,C,46.013626,-119.0238853,WA,,
2005,01-01-1998,1000,2,1300,15,C,33.74,-106.887,NM,,
2005,08-24-1999,1530,8,2130,15,C,39.81666667,-114.8833333,NV,,
2005,08-11-1999,1550,20,2330,15,C,46.826389,-119.491667,WA,,
2005,09-08-2000,2258,8,2359,15,C,42.575,-100.7313889,NE,,
2005,05-25-2001,1600,7,2030,15,C,44.65027778,-112.0166667,MT,,
2005,07-06-2002,1600,13,1730,15,C,29.7,-94.125,TX,,
2005,08-04-2006,1500,19,2000,15,C,28.58805556,-80.88333333,FL,,
2005,08-05-2006,1000,5,2345,15,C,34.5385,-80.2033,SC,,
2005,08-05-2008,1530,5,1730,15,C,28.26638889,-97,TX,,
2006,06-07-1996,2025,20,,15,C,31.73552625,-109.1059739,AZ,3,Cochise
2006,06-07-1992,1218,6,1355,15,C,31.38200393,-109.6500495,AZ,3,Cochise
2006,06-21-2009,,6,,15,C,63.46666667,-156.0666667,AK,,
2006,07-18-1995,1500,10,1650,15,C,31.16056728,-90.02922464,MS,147,Walthall
2006,08-05-1999,,11,,15,C,44.74875,-119.94091,OR,69,Wheeler
2006,07-25-2002,,7,,15,C,44.86049,-119.48113,OR,23,Grant
2006,07-22-1997,,13,,15,C,45.2914,-118.40496,OR,61,Union
2006,07-04-2001,,9,,15,C,44.65269,-117.81727,OR,1,Baker
2006,05-26-1992,1419,1,2200,15,C,32.83971165,-110.9979377,AZ,21,Pinal
2006,07-27-1998,,6,,15,C,44.97564,-119.29285,OR,23,Grant
2007,08-17-1994,1137,9,1840,15,C,35.41936664,-114.3821823,AZ,15,Mohave
2007,08-11-1994,1445,16,,15,C,35.45843832,-113.9372596,AZ,15,Mohave
2007,06-24-1995,1348,2,1700,15,C,45.9046229,-89.37037075,WI,125,Vilas
2008,08-24-2000,1510,4,1700,15,C,34.435,-117.25,CA,,
2008,05-23-2000,2015,11,2115,15,C,33.06666667,-79.73333333,SC,15,Berkeley
2008,08-21-2002,1210,18,2038,15,C,40.28805556,-110.9677778,UT,,
2008,08-01-2002,1001,5,1900,15,C,46.63416667,-103.4902778,ND,7,Billings
2008,06-05-2002,1330,8,2350,15,C,46.64166667,-103.4666667,ND,87,Slope
2008,04-05-2003,1300,18,1530,15,C,35.43944444,-92.74944444,AR,,
2008,07-31-2007,1945,3,2330,15,C,45.4283,-103.1481,SD,,
2009,06-28-2009,2040,18,2245,15,C,32.933247,-86.538478,AL,21,Chilton
2009,06-07-2007,1900,7,2330,15,C,32.549147,-87.985744,AL,119,Sumter
2009,08-27-2007,815,1,1153,15,C,33.423499,-87.535113,AL,125,Tuscaloosa
2009,08-27-2007,1336,7,1743,15,C,33.5358,-87.309831,AL,127,Walker
2009,04-09-2004,1510,19,1745,15,C,32.824673,-87.275997,AL,105,Perry
2009,07-25-2006,1530,5,1800,15,C,32.47368,-87.754294,AL,91,Marengo
2009,06-22-2006,1726,8,2345,15,C,33.854928,-85.733287,AL,15,Calhoun
2009,06-23-2006,1642,11,1756,15,C,32.390032,-85.235816,AL,113,Russell
2009,09-05-1999,1857,12,2053,15,C,31.67599404,-90.65241821,MS,85,Lincoln
2009,07-24-2010,2100,13,2300,15,C,40.065,-120.216389,CA,63,Plumas
2009,08-01-2010,1719,1,1719,15,C,42.888958,-106.703906,WY,25,Natrona
2009,08-27-2003,1725,1,1725,15,C,36.39128332,-94.62985001,OK,41,Delaware
2009,06-25-2009,1310,4,1310,15,C,34.41000001,-95.91016668,OK,5,Atoka
2009,06-26-2008,1328,4,1328,15,C,31.4595,-109.7231,AZ,,
2009,06-13-2009,1410,8,1410,15,C,33.79482,-103.19312,NM,41,Roosevelt
2009,06-13-2009,1645,16,1645,15,C,34.0363,-103.27985,NM,41,Roosevelt
2010,04-12-1992,1945,2,1945,15,C,39.34416565,-81.31012834,WV,73,Pleasants
2010,07-31-2010,1355,3,1355,15,C,28.6302,-81.0578,FL,117,Seminole
2010,08-20-2010,,5,,15,C,29.5749,-81.737,FL,107,Putnam
2010,08-19-2010,1630,15,1630,15,C,27.3497,-80.4318,FL,111,St. Lucie
2010,06-17-2010,1310,11,1310,15,C,27.0868,-82.1096,FL,115,Sarasota
2010,04-22-2010,1718,9,1718,15,C,29.5544,-83.3905,FL,29,Dixie
2010,04-24-2010,1723,6,1723,15,C,28.1117,-80.6669,FL,9,Brevard
2010,05-16-2010,1415,15,1415,15,C,26.9346,-81.9464,FL,15,Charlotte
2010,05-20-2010,1945,12,1945,15,C,27.7783,-82.277,FL,57,Hillsborough
2010,06-15-2010,1550,10,1550,15,C,27.5698,-81.4136,FL,55,Highlands
2010,06-17-2010,1520,9,1520,15,C,27.7193,-81.9664,FL,105,Polk
2010,06-16-2010,1000,11,1000,15,C,29.0409,-82.3769,FL,83,Marion
2010,06-18-2010,1635,15,1635,15,C,27.6675,-81.9358,FL,105,Polk
2010,06-18-2010,1330,6,1330,15,C,26.9063,-81.9761,FL,15,Charlotte
2010,06-27-2010,,11,,15,C,29.3458,-81.9167,FL,83,Marion
2010,05-05-1992,2030,3,2330,15,C,30.6924,-82.0994,GA,49,Charlton
2010,06-18-1993,1245,19,1430,15,C,31.4124,-82.3173,GA,229,Pierce
2010,07-02-1993,1155,5,1505,15,C,33.0753,-82.8678,GA,303,Washington
2010,07-07-1993,400,3,1330,15,C,30.9152,-81.68,GA,39,Camden
2010,08-08-1993,130,5,1140,15,C,30.5725,-82.1396,GA,49,Charlton
2010,05-28-1994,1440,4,1600,15,C,30.6582,-82.1393,GA,49,Charlton
2009,07-22-2000,1640,20,1640,15.01,C,31.138,-81.6783,GA,127,Glynn
2008,05-26-2001,1300,17,1930,15.1,C,32.8125,-87.125,AL,,
2010,06-11-1993,1900,17,,15.18,C,32.2354,-83.0041,GA,175,Laurens
2009,06-24-2000,1350,9,1350,15.2,C,31.9273,-84.3783,GA,261,Sumter
2009,05-24-2000,1006,16,1006,15.2,C,31.5151,-81.6955,GA,305,Wayne
2009,08-17-2000,1200,5,1200,15.2,C,30.6414,-83.3196,GA,185,Lowndes
2010,06-18-2010,,12,,15.2,C,31.22803,-85.188386,AL,69,Houston
2009,06-26-2000,1410,17,1410,15.22,C,33.4181,-82.7064,GA,301,Warren
2010,08-03-1994,2030,16,2155,15.28,C,30.8298,-82.9352,GA,101,Echols
2008,10-27-1999,1200,8,1800,15.3,C,43.29748,-116.13685,ID,1,Ada
2009,08-17-2010,1710,13,2330,15.3,C,44.8561,-121.4661,OR,,
2009,08-26-2000,1450,18,1450,15.3,C,30.7441,-82.8154,GA,101,Echols
2010,08-03-2010,1350,2,1350,15.3,C,28.8544,-80.9941,FL,127,Volusia
2009,06-04-2001,745,15,745,15.31,C,31.1552,-81.9379,GA,25,Brantley
2009,06-07-2001,1241,17,1241,15.4,C,31.2409,-81.7375,GA,127,Glynn
2010,07-09-1993,1230,8,1625,15.4,C,31.0351,-81.6192,GA,39,Camden
2009,07-20-2000,930,20,,15.48,C,32.3042,-83.7323,GA,153,Houston
2010,08-27-1996,1630,17,,15.48,C,31.8074,-84.76,GA,243,Randolph
2010,06-15-2010,1850,13,1850,15.5,C,30.1208,-81.9314,FL,19,Clay
2010,07-14-1995,2000,5,2205,15.5,C,33.4016,-84.9974,GA,77,Coweta
2009,07-12-2000,1130,13,1130,15.54,C,32.2184,-83.2869,GA,91,Dodge
2009,08-06-2010,1630,2,1730,15.6,C,43.6947222,-104.765833,WY,45,Weston
2009,06-15-2000,1430,10,1430,15.6,C,30.8124,-82.1188,GA,49,Charlton
2009,06-07-2000,1110,4,1110,15.63,C,32.2526,-83.166,GA,91,Dodge
2009,06-15-2002,1522,8,1522,15.66,C,32.0468,-82.8615,GA,309,Wheeler
2009,08-01-2002,1515,9,1515,15.71,C,33.60626658,-82.41632357,GA,73,Columbia
2010,08-21-1993,800,12,1915,15.81,C,32.2692,-81.2452,GA,103,Effingham
2007,07-29-1994,1403,2,1730,16,C,35.1491282,-114.0971757,AZ,15,Mohave
2007,08-17-2006,,10,,16,C,45.86833,-117.56667,OR,63,Wallowa
2009,07-18-2006,1422,3,1548,16,C,31.617945,-87.284969,AL,99,Monroe
2009,06-23-2006,1645,13,1730,16,C,32.111841,-88.220659,AL,23,Choctaw
2009,06-26-2006,1352,20,1622,16,C,30.67188,-87.49023,AL,3,Baldwin
2009,07-14-2010,1430,9,1740,16,C,46.8619,-106.1514,MT,17,Custer
2009,06-30-2009,1455,17,2036,16,C,44.2372,-106.1375,WY,19,Johnson
2009,06-15-2000,812,15,812,16,C,32.1157,-83.8945,GA,93,Dooly
2009,06-01-2009,1310,7,1310,16,C,36.2469,-104.5704,NM,7,Colfax
2010,04-26-2010,1310,15,1310,16,C,29.7691,-81.861,FL,107,Putnam
2010,06-14-2010,1138,9,1138,16,C,29.9501,-83.3355,FL,67,Lafayette
2010,06-18-2010,1430,16,1430,16,C,27.0126,-82.0052,FL,15,Charlotte
2010,06-04-2010,,5,,16,C,29.6953,-81.3055,FL,109,St. Johns
2010,09-21-2010,,15,,16,C,33.433778,-86.070782,AL,121,Talladega
2010,07-09-1993,1510,12,1740,16.04,C,33.1779,-82.0923,GA,33,Burke
2010,07-14-1995,900,15,1515,16.04,C,30.71,-83.4783,GA,27,Brooks
2008,08-23-2007,1200,8,1800,16.1,C,43.27308,-116.18978,ID,1,Ada
2009,05-27-2000,1937,16,1937,16.13,C,32.8012,-83.3643,GA,289,Twiggs
2008,10-27-1999,1200,3,1800,16.2,C,43.24847,-116.13669,ID,1,Ada
2008,08-23-2007,1200,5,1800,16.2,C,43.25467,-116.16573,ID,1,Ada
2010,06-26-1992,1445,16,2120,16.25,C,32.1663,-81.3272,GA,103,Effingham
2009,09-04-2010,,18,,16.4,C,45.9275,-118.23556,OR,59,Umatilla
2010,06-11-1993,1400,17,1515,16.4,C,33.041,-82.7248,GA,303,Washington
2007,09-04-2006,,6,,16.5,C,45.25667,-118.15167,OR,61,Union
2009,07-30-2010,1901,19,2055,16.5,C,45.4491,-108.2507,MT,,
2010,07-09-1998,1730,7,1830,16.5,C,30.7097,-82.4971,GA,65,Clinch
2009,08-09-2000,1847,5,1847,16.54,C,33.1442,-83.8719,GA,207,Monroe
2010,07-23-1993,1445,8,1610,16.54,C,33.1609,-82.6029,GA,125,Glascock
2010,07-28-1993,1530,9,1655,16.63,C,33.4011,-83.2567,GA,237,Putnam
2005,06-26-2004,2100,17,2225,16.7,C,25.9939,-81.3103,FL,,
2010,05-16-1995,1515,1,1810,16.72,C,32.3902,-84.5823,GA,197,Marion
2009,06-18-2000,1415,5,1415,16.86,C,32.047,-83.4307,GA,315,Wilcox
2009,05-14-2002,1430,11,1430,16.87,C,32.1838,-82.2159,GA,279,Toombs
2009,08-11-2001,1053,17,1053,16.88,C,31.3439,-82.3975,GA,299,Ware
2009,05-27-2001,1317,18,1317,16.95,C,31.5494,-81.7354,GA,305,Wayne
2005,08-07-2005,1312,15,1946,17,C,35.0753,-115.3456,CA,,
2005,07-18-2006,900,5,1600,17,C,29.316,-83.033,FL,,
2006,07-09-1994,,3,,17,C,45.11103,-118.7754,OR,59,Umatilla
2008,07-31-2005,1316,2,1530,17,C,33.1,-116.8494444,CA,,
2009,07-20-2006,2130,19,2359,17,C,32.430179,-87.822598,AL,91,Marengo
2009,08-22-2006,1141,2,1425,17,C,33.419786,-87.362308,AL,125,Tuscaloosa
2009,07-13-2010,1530,15,2000,17,C,43.6125,-104.801389,WY,45,Weston
2009,08-16-2010,655,17,1420,17,C,42.1569,-114.7919,ID,83,Twin Falls
2009,08-21-2010,1622,7,2020,17,C,42.115,-115.0133,ID,83,Twin Falls
2009,06-26-2000,1530,11,1530,17,C,33.6752,-82.7077,GA,317,Wilkes
2009,06-27-2000,1510,19,1510,17,C,33.6923,-82.6256,GA,317,Wilkes
2009,07-17-2000,1702,9,1702,17,C,31.5837,-81.6749,GA,183,Long
2009,07-04-2009,1855,19,1855,17,C,32.7506,-104.6783,NM,15,Eddy
2009,09-07-2009,753,11,753,17,C,33.273167,-105.172583,NM,27,Lincoln
2010,11-25-1996,1250,1,1355,17.01,C,32.1501,-84.3185,GA,261,Sumter
2009,05-31-2007,1010,11,1630,17.1,C,32.462172,-87.260168,AL,47,Dallas
2009,07-10-2010,1200,11,1200,17.3,C,67.8478,-158.1019,AK,,
2009,08-20-2000,1130,11,1130,17.4,C,30.898,-81.5805,GA,39,Camden
2009,07-10-2010,1200,3,1200,17.5,C,67.9189,-158.2717,AK,,
2009,05-15-2001,1600,11,1600,17.57,C,30.6069,-82.6361,GA,101,Echols
2009,07-22-2010,1530,7,1800,17.6,C,43.13094,-106.02836,WY,9,Converse
2010,05-16-1995,1830,3,,17.7,C,32.4923,-82.3777,GA,107,Emanuel
2005,07-24-2006,1544,10,2100,18,C,35.4153,-115.7964,CA,,
2006,05-12-1992,1100,5,1700,18,C,45.93333478,-69.19999799,ME,21,Piscataquis
2007,08-09-2006,,19,,18,C,44.86,-119.42,OR,23,Grant
2008,08-26-2000,1542,14,2030,18,C,44.9525,-112.4680556,MT,,
2009,07-18-2006,1506,13,1955,18,C,32.920994,-86.396762,AL,37,Coosa
2009,07-05-2006,1820,15,2300,18,C,32.771289,-87.145594,AL,105,Perry
2009,09-25-2010,1230,3,2000,18,C,37.3847222,-80.2713889,VA,45,Craig
2009,06-26-2010,1605,17,1900,18,C,32.9828,-104.2447,NM,5,Chaves
2009,06-24-2000,1120,6,1120,18,C,31.4807,-81.2547,GA,191,McIntosh
2010,06-18-2010,1200,15,1200,18,C,27.662,-81.0412,FL,97,Osceola
2010,06-16-2010,,15,,18,C,31.756784,-85.832904,AL,109,Pike
2010,06-25-1998,1615,19,1732,18,C,30.984,-82.5171,GA,299,Ware
2009,08-21-2010,1400,13,1800,18.3,C,47.5094,-107.1578,MT,33,Garfield
2009,06-10-2009,1130,20,1130,18.33,C,32.727556,-108.174778,NM,17,Grant
2009,06-15-2002,1700,14,1700,18.4,C,30.6413,-83.0734,GA,101,Echols
2010,05-09-1996,1600,13,,18.6,C,31.6008,-81.8153,GA,305,Wayne
2010,07-24-1993,1600,8,1933,18.64,C,31.4294,-81.616,GA,127,Glynn
2010,07-22-1993,1448,2,1810,18.78,C,32.3383,-83.0858,GA,175,Laurens
2009,07-07-2002,1227,9,1227,18.8,C,31.41602621,-81.81956361,GA,305,Wayne
2010,08-10-1997,1000,17,2040,18.85,C,31.9783,-82.8611,GA,271,Telfair
2009,08-26-2000,1642,7,1642,18.88,C,33.6412,-83.5212,GA,211,Morgan
2009,07-14-2009,1515,17,1515,18.9,C,33.695528,-105.408278,NM,27,Lincoln
2009,06-14-2006,1920,4,2200,19,C,32.568049,-86.617147,AL,1,Autauga
2010,07-30-2010,,2,,19,C,30.2125,-82.0498,FL,3,Baker
2010,08-01-1995,1600,11,2130,19,C,32.3381,-82.3371,GA,107,Emanuel
2009,08-30-2001,1408,1,1408,19.1,C,32.0123,-81.9943,GA,267,Tattnall
2009,07-07-2002,1555,6,1555,19.2,C,32.86676622,-82.04427056,GA,165,Jenkins
2010,07-09-1993,1800,4,,19.29,C,31.738,-82.0155,GA,305,Wayne
2008,07-15-2003,1930,1,2100,19.3,C,43.31583333,-103.0288889,SD,47,Fall River
2009,08-09-2002,1400,16,1400,19.32,C,33.40415613,-82.77431741,GA,301,Warren
2009,08-25-2001,1240,1,1240,19.4,C,30.8298,-82.8555,GA,101,Echols
2008,10-27-1999,1200,6,1800,19.6,C,43.25099,-116.1429,ID,1,Ada
2010,06-05-1994,1722,18,1820,19.71,C,32.9208,-82.0317,GA,33,Burke
2009,06-26-2000,1000,10,1000,19.77,C,33.3155,-83.5235,GA,237,Putnam
2008,08-24-2007,1200,1,1800,19.8,C,43.23969,-116.15304,ID,1,Ada
2009,06-05-2000,1840,13,1840,19.97,C,31.5323,-81.9562,GA,305,Wayne
2005,07-06-2004,1150,12,2200,20,C,43.49736,-103.51343,SD,,
2005,07-10-1993,1730,1,1945,20,C,41.75,-102.3666667,NE,,
2005,07-10-1994,1240,7,1800,20,C,47.716,-107.183,MT,,
2005,07-28-1994,1500,15,2000,20,C,44.65,-111.9666667,MT,,
2005,07-31-1995,1430,14,2300,20,C,47.683,-107.525,MT,,
2005,05-17-1996,1740,4,2000,20,C,42.58333333,-100.4166667,NE,,
2005,07-15-1997,800,1,915,20,C,38.23333333,-98.49166667,KS,,
2005,08-18-1998,1400,5,2100,20,C,41.75,-103.75,NE,,
2005,05-11-2000,1030,7,1310,20,C,38.55,-75.90833333,MD,,
2005,05-16-2000,1430,16,2020,20,C,38.55,-75.90833333,MD,,
2005,08-09-2006,1800,11,1915,20,C,47.56888889,-108.7416667,MT,,
2005,06-26-2007,1230,10,1600,20,C,30.10138889,-84.14222222,FL,,
2006,06-30-1994,1400,8,,20,C,32.11140519,-110.4347261,AZ,3,Cochise
2006,04-21-1994,1644,5,2230,20,C,32.10297814,-110.026365,AZ,3,Cochise
2006,10-13-1992,1340,13,1635,20,C,31.77364496,-109.7830736,AZ,3,Cochise
2006,06-07-1996,1930,16,2100,20,C,31.73552625,-109.1059739,AZ,3,Cochise
2006,06-24-1996,1311,7,,20,C,31.66832635,-109.4764799,AZ,3,Cochise
2006,06-27-1995,1320,7,1430,20,C,32.82592401,-90.21996013,MS,163,Yazoo
2006,08-15-2001,,10,,20,C,44.60199,-117.67039,OR,1,Baker
2007,06-30-1994,1018,14,1251,20,C,35.48158717,-113.7363778,AZ,15,Mohave
2007,06-30-1995,1312,19,2100,20,C,35.29260482,-113.0235759,AZ,25,Yavapai
2007,07-28-1998,,11,,20,C,45.23699,-119.073,OR,59,Umatilla
2007,08-08-2009,,1,,20,C,45.26889,-119.16417,OR,49,Morrow
2008,09-07-2000,1135,4,1400,20,C,33.56888889,-116.8833333,CA,,
2008,09-05-2002,1945,18,2010,20,C,45.8372,-103.5707,SD,,
2008,07-31-1996,1500,4,2359,20,C,47.773,-114.5607,MT,,
2009,08-20-2007,1443,1,1800,20,C,33.942454,-85.401729,AL,29,Cleburne
2009,08-20-2007,1330,7,1633,20,C,33.852234,-86.997797,AL,127,Walker
2009,08-23-2007,1450,17,1945,20,C,33.670896,-86.155472,AL,121,Talladega
2009,08-23-2007,1550,2,1813,20,C,32.837557,-85.602287,AL,123,Tallapoosa
2009,06-04-2006,1711,8,1915,20,C,31.466303,-85.986011,AL,31,Coffee
2009,07-21-2006,1245,5,1725,20,C,31.121398,-87.488872,AL,53,Escambia
2009,06-25-2006,1230,17,1500,20,C,31.078116,-87.284792,AL,53,Escambia
2009,06-26-2006,1655,7,1900,20,C,30.742863,-87.640082,AL,3,Baldwin
2009,06-27-2006,905,7,1152,20,C,31.00195,-86.86306,AL,53,Escambia
2009,08-31-1997,1849,3,2018,20,C,30.94285099,-88.62176091,MS,39,George
2009,06-01-2010,1145,6,2000,20,C,46.0361111,-90.6747222,WI,3,Ashland
2009,06-16-2010,1900,2,2100,20,C,45.7828,-101.4431,SD,,
2009,07-26-2010,1739,5,2331,20,C,45.6994,-106.3886,MT,,
2009,07-07-2010,1512,16,1512,20,C,67.7344,-158.2819,AK,,
2009,07-17-2009,1830,3,1830,20,C,34.13933333,-95.0395,OK,89,McCurtain
2009,07-17-2009,2020,18,2020,20,C,34.5806167,-94.81169999,OK,79,Le Flore
2009,05-15-2001,1550,6,1550,20,C,34.07,-84.6737,GA,15,Bartow
2009,08-30-2000,1640,14,1640,20,C,32.7494,-82.2965,GA,107,Emanuel
2009,08-19-2002,1324,7,1324,20,C,31.66538467,-82.55692847,GA,5,Bacon
2009,06-10-2009,759,6,759,20,C,34.473667,-103.6445,NM,9,Curry
2009,05-31-2009,1140,16,1140,20,C,33.89968,-103.62298,NM,41,Roosevelt
2010,05-30-2009,1010,3,1902,20,C,44.17966975,-107.8633933,WY,,
2010,07-17-2005,2120,8,,20,C,41.09788665,-105.3454892,WY,,
2010,06-01-2002,1420,8,1755,20,C,41.21844963,-104.8472364,WY,,
2010,07-18-2010,1300,2,1300,20,C,26.9892,-82.2745,FL,115,Sarasota
2010,07-31-2010,1430,14,1430,20,C,26.9299,-80.3701,FL,99,Palm Beach
2010,09-22-2010,,19,,20,C,30.4875,-86.0366,FL,131,Walton
2010,09-24-2010,1300,15,1300,20,C,30.1595,-81.464,FL,31,Duval
2010,04-24-2010,1240,1,1240,20,C,30.0518,-85.383,FL,45,Gulf
2010,04-26-2010,1405,10,1405,20,C,30.101,-82.1012,FL,7,Bradford
2010,05-22-2010,1435,16,1435,20,C,29.9355,-82.9691,FL,67,Lafayette
2010,06-15-2010,1610,1,1610,20,C,27.8916,-81.5287,FL,105,Polk
2010,06-20-2010,1334,7,1334,20,C,29.9748,-85.2591,FL,45,Gulf
2010,06-12-1993,1615,17,1715,20,C,32.8182,-82.8865,GA,303,Washington
2010,08-10-1993,1800,6,,20,C,30.9325,-82.4772,GA,299,Ware
2010,06-26-2010,700,1,1430,20,C,35.36066666,-76.1005,NC,95,Hyde
2010,06-28-2010,1500,20,1555,20,C,35.24736666,-79.46883333,NC,125,Moore
2009,04-21-2000,1430,3,1430,20.13,C,33.1959,-84.8524,GA,199,Meriwether
2010,08-11-2010,1320,11,1320,20.2,C,28.8276,-80.8977,FL,127,Volusia
2009,08-22-2002,1000,17,1000,20.4,C,40.42322222,-76.76272222,PA,43,Dauphin
2010,05-15-1994,1800,1,1950,20.44,C,32.1323,-82.0948,GA,267,Tattnall
2008,08-08-2003,1605,6,1900,20.5,C,43.66694444,-103.045,SD,33,Custer
2009,08-08-2000,1448,10,1448,20.5,C,31.8407,-81.4314,GA,179,Liberty
2010,07-30-1993,1200,9,1645,20.66,C,33.1951,-82.1536,GA,33,Burke
2010,07-21-1996,1400,5,1551,20.75,C,31.001,-82.1182,GA,49,Charlton
2009,07-07-2010,1400,8,1900,20.8,C,28.827245,-80.833543,FL,,
2005,07-08-2001,1800,11,2000,21,C,25.86158,-81.19015,FL,,
2009,03-30-2004,2005,14,2145,21,C,31.033816,-87.606858,AL,53,Escambia
2009,06-04-2009,1127,4,1127,21,C,36.7864,-104.7186,NM,7,Colfax
2009,07-16-2009,1701,10,1701,21,C,34.10751,-104.34814,NM,11,De Baca
2010,07-28-2001,1335,19,1449,21,C,42.78016438,-105.2578348,WY,,
2009,05-24-2000,1030,13,1030,21.02,C,30.6241,-82.8945,GA,101,Echols
2009,06-04-2002,1155,13,1155,21.11,C,31.5322,-81.575,GA,191,McIntosh
2010,06-25-1998,1615,11,1750,21.15,C,31.0353,-82.1181,GA,25,Brantley
2009,07-19-2010,1100,15,1800,21.17,C,31.5422222,-110.499722,AZ,23,Santa Cruz
2010,07-11-1995,1400,17,1540,21.2,C,30.6927,-82.8351,GA,101,Echols
2009,08-01-2010,1300,4,1740,21.5,C,47.157683,-107.94325,MT,69,Petroleum
2010,10-25-2010,,13,,21.5,C,33.842608,-88.048139,AL,75,Lamar
2009,06-10-2000,1335,18,1335,21.51,C,30.7618,-84.6918,GA,87,Decatur
2010,05-27-1996,2030,18,2300,21.53,C,30.6584,-82.8548,GA,101,Echols
2009,06-06-2002,2100,10,2100,21.7,C,31.4466,-81.9365,GA,305,Wayne
2009,06-04-2000,1745,1,1745,21.95,C,31.5494,-81.8357,GA,305,Wayne
2005,08-01-2005,1600,19,2000,22,C,29.68,-94.14861111,TX,,
2009,04-08-2009,1650,12,1806,22,C,33.951287,-87.732509,AL,93,Marion
2009,05-24-2006,1718,16,2000,22,C,30.641221,-87.488846,AL,3,Baldwin
2009,08-06-2006,430,19,1830,22,C,34.049455,-86.559904,AL,9,Blount
2009,08-31-2010,1530,20,2200,22,C,35.1988889,-84.4322222,TN,139,Polk
2009,06-17-2000,1510,4,1510,22,C,31.2237,-81.7576,GA,127,Glynn
2009,08-26-2000,1720,7,1720,22.13,C,33.2983,-83.4827,GA,237,Putnam
2008,08-24-2007,1200,6,1800,22.2,C,43.23699,-116.16111,ID,1,Ada
2010,09-07-2010,1643,19,1643,22.3,C,29.8734,-81.746,FL,19,Clay
2009,07-05-2002,1805,8,1805,22.46,C,33.2546886,-82.40310936,GA,163,Jefferson
2009,07-22-2000,1856,20,1856,22.5,C,31.4638,-81.9966,GA,305,Wayne
2010,08-17-1998,1430,5,,22.5,C,30.6924,-82.0994,GA,49,Charlton
2005,03-26-2002,1015,17,1800,22.8,C,41.9185,-109.9126,WY,,
2005,06-07-1996,1630,15,2100,23,C,43.05,-118.8333333,OR,,
2007,07-21-2001,,6,,23,C,45.66386,-117.6627,OR,63,Wallowa
2009,06-27-2006,1540,17,1900,23,C,33.415551,-87.846965,AL,107,Pickens
2009,08-06-2010,2050,11,2237,23,C,44.3413889,-117.084444,ID,87,Washington
2009,10-12-2010,1300,12,1510,23,C,34.2652778,-94.6625,OK,89,McCurtain
2010,07-19-1999,1330,9,1330,23,C,38.31488656,-81.53762896,WV,39,Kanawha
2010,08-05-2010,,20,,23,C,32.028207,-87.255728,AL,131,Wilcox
2009,08-24-2001,1514,8,1514,23.1,C,32.5609,-82.4791,GA,107,Emanuel
2010,06-06-1996,1730,1,2145,23.12,C,30.9498,-82.9788,GA,173,Lanier
2010,07-11-1993,1500,5,1722,23.36,C,33.1095,-82.5414,GA,163,Jefferson
2009,07-23-2001,1505,2,1505,23.4,C,31.8416,-84.3377,GA,273,Terrell
2009,04-19-2002,940,12,940,23.5,C,30.9497,-82.6766,GA,65,Clinch
2010,08-20-2010,1115,13,1115,23.5,C,30.0616,-81.4491,FL,109,St. Johns
2010,06-22-2010,1415,7,1415,23.5,C,28.2842,-80.712,FL,9,Brevard
2010,06-25-1993,1630,19,1920,23.64,C,32.7837,-82.1135,GA,165,Jenkins
2010,06-17-2010,1720,7,1720,23.8,C,30.1335,-82.0322,FL,19,Clay
2009,07-13-2000,1650,4,1650,23.86,C,31.9616,-84.4389,GA,261,Sumter
2010,06-12-1993,2300,17,,23.9,C,31.4637,-81.8161,GA,305,Wayne
2005,08-22-1993,1330,3,1800,24,C,29.133,-95.2833,TX,,
2005,04-17-1999,1250,15,1600,24,C,44.066,-90.15,WI,,
2009,06-09-2007,1058,15,1500,24,C,31.312456,-86.947271,AL,35,Conecuh
2009,09-22-2001,1700,11,1700,24,C,31.3437,-81.8569,GA,25,Brantley
2010,02-24-2007,1923,17,,24,C,35.145367,-87.9905,TN,181,Wayne
2005,05-19-2006,1100,6,1800,24.2,C,46.68416667,-119.6075,WA,,
2009,07-02-2002,1810,17,1810,24.32,C,32.40385957,-83.47630192,GA,23,Bleckley
2010,06-28-1995,1300,12,1929,24.38,C,31.8246,-84.8407,GA,243,Randolph
2009,06-21-2006,1337,11,2055,24.5,C,33.639,-87.449923,AL,57,Fayette
2009,08-31-2001,1629,2,1629,24.57,C,32.3725,-82.7622,GA,175,Laurens
2009,06-21-2000,1330,6,1330,24.67,C,33.2636,-82.0717,GA,245,Richmond
2009,05-30-2002,915,10,915,24.8,C,31.0012,-82.8961,GA,65,Clinch
2007,05-11-1994,1815,11,1943,24.96,C,45.19255003,-88.17867891,WI,75,Marinette
2005,07-06-1992,1800,14,1850,25,C,45.93333333,-119.5,WA,,
2005,07-24-2000,1330,18,1530,25,C,42.53333333,-100.5333333,NE,,
2005,08-16-2000,1600,14,1700,25,C,42.64166667,-100.8,NE,,
2005,08-01-2001,1300,1,2000,25,C,37.4236,-105.7766,CO,,
2005,07-02-2003,900,16,1200,25,C,47.626,-107.625,MT,,
2006,07-23-1993,1922,18,2200,25,C,32.05887763,-109.5092103,AZ,3,Cochise
2006,06-29-1994,1658,14,1802,25,C,31.71889954,-110.3856998,AZ,3,Cochise
2006,06-14-1993,140,8,930,25,C,31.33688965,-110.924294,AZ,23,Santa Cruz
2006,07-25-1995,1608,2,1930,25,C,30.4888899,-88.45606706,MS,59,Jackson
2006,07-30-1996,,11,,25,C,45.03411,-119.02495,OR,59,Umatilla
2006,06-27-1995,1635,20,2230,25,C,32.82639525,-110.1536597,AZ,9,Graham
2007,05-22-1993,1615,7,2200,25,C,32.53068469,-110.5932365,AZ,21,Pinal
2008,09-17-2000,1100,4,1600,25,C,32.775,-87.19166667,AL,,
2008,08-16-2000,2115,18,2230,25,C,37.25833333,-102.0416667,KS,,
2008,08-20-2004,1400,18,1600,25,C,47.4455,-116.6057,ID,,
2009,06-10-2007,1428,9,1717,25,C,31.224845,-87.099243,AL,53,Escambia
2009,08-06-2007,1532,3,1930,25,C,30.815425,-87.793124,AL,3,Baldwin
2009,07-18-2006,1407,13,1611,25,C,31.121398,-87.488872,AL,53,Escambia
2009,07-18-2006,1535,17,1930,25,C,32.699399,-86.889688,AL,21,Chilton
2009,07-04-2006,1452,6,1900,25,C,31.398944,-87.590564,AL,99,Monroe
2009,09-03-1999,2050,14,,25,C,33.64945645,-89.71202233,MS,97,Montgomery
2009,08-25-2010,1318,15,1600,25,C,33.46144,-116.93661,CA,65,Riverside
2009,06-28-2010,1300,17,1800,25,C,33.0894,-105.9417,NM,35,Otero
2009,08-19-2007,100,6,100,25,C,37.21214,-83.26313,KY,193,Perry
2009,06-10-2009,530,11,530,25,C,32.5194,-107.928083,NM,29,Luna
2009,04-23-2009,1415,12,1900,25,C,35.5868,-85.55843,TN,175,Van Buren
2010,06-20-2010,1513,20,1513,25,C,27.9405,-80.5973,FL,9,Brevard
2010,06-28-2010,,20,,25,C,30.3193,-84.9398,FL,77,Liberty
2010,07-31-2010,,20,,25,C,30.567491,-87.8775,AL,3,Baldwin
2010,08-16-2010,,12,,25,C,34.195083,-85.677008,AL,19,Cherokee
2010,09-12-2010,,11,,25,C,33.928284,-85.85542,AL,15,Calhoun
2010,08-08-1993,130,4,1000,25,C,30.5553,-82.1396,GA,49,Charlton
2010,05-15-1995,1300,11,1725,25,C,33.058,-82.2557,GA,33,Burke
2010,07-12-1995,100,19,1130,25,C,32.3721,-81.6488,GA,31,Bulloch
2009,05-12-2002,1030,14,1030,25.2,C,31.4123,-81.7564,GA,305,Wayne
2010,07-10-2010,,8,,25.25,C,33.195588,-85.52351,AL,111,Randolph
2009,03-28-2000,1530,9,1530,25.46,C,34.0874,-85.293,GA,115,Floyd
2009,06-16-2002,1515,11,1515,25.6,C,30.9327,-82.979,GA,173,Lanier
2010,07-27-1995,2000,5,2135,25.62,C,31.3098,-83.135,GA,19,Berrien
2010,06-08-1996,1500,19,1925,25.63,C,32.1663,-81.2868,GA,51,Chatham
2009,07-21-2000,705,8,705,25.72,C,31.4464,-81.2551,GA,191,McIntosh
2008,09-03-2007,1915,3,2200,26,C,45.7706,-103.4914,SD,,
2009,07-24-2009,1843,10,2120,26,C,33.869721,-85.785569,AL,15,Calhoun
2009,06-26-2006,1645,5,1715,26,C,31.297104,-88.201986,AL,129,Washington
2009,06-16-2010,1628,15,1830,26,C,33.1117,-104.4597,NM,5,Chaves
2009,05-07-2009,1048,2,1048,26,C,45.748224,-92.611881,WI,13,Burnett
2009,07-31-2010,1439,19,1543,26.1,C,42.0458333,-114.056389,ID,31,Cassia
2008,06-14-2004,1430,15,,26.2,C,67.638,-162.3868,AK,,
2009,07-27-2000,1710,14,1710,26.21,C,33.5382,-83.2608,GA,133,Greene
2010,06-17-2007,1804,12,1804,26.5,C,44.45855757,-73.742278,NY,19,Clinton
2005,05-22-2001,730,17,1045,26.8,C,29.601,-94.4219,TX,,
2008,08-27-2007,1200,20,1800,26.9,C,43.24371,-116.03178,ID,1,Ada
2009,07-18-2006,1204,19,1530,27,C,32.700542,-86.923884,AL,21,Chilton
2009,06-26-2006,1520,7,1708,27,C,31.238985,-87.16692,AL,53,Escambia
2009,05-30-2010,831,7,1428,27,C,32.6431,-104.9189,NM,15,Eddy
2010,07-21-1996,2020,17,2208,27,C,30.641,-82.0996,GA,49,Charlton
2007,06-02-2007,,10,,27.5,C,45.37833,-118.73806,OR,59,Umatilla
2009,08-19-2010,1645,19,1915,27.7,C,46.9683,-105.3269,MT,79,Prairie
2009,06-04-2002,1820,16,1820,27.8,C,32.4753,-82.7019,GA,175,Laurens
2009,06-06-2000,1200,19,1200,27.95,C,32.9553,-82.8669,GA,303,Washington
2009,06-10-2006,1656,12,2030,28,C,31.22531,-87.15958,AL,35,Conecuh
2010,08-16-2010,1645,2,1645,28,C,28.4136,-80.8853,FL,9,Brevard
2010,06-14-2010,1320,11,1320,28,C,30.0262,-85.3826,FL,45,Gulf
2010,05-24-1994,100,20,1115,28,C,33.1439,-83.1337,GA,9,Baldwin
2010,07-27-1993,900,19,1600,28,C,32.9895,-82.5207,GA,163,Jefferson
2010,03-30-1992,1505,19,1550,28.03,C,30.9161,-84.7927,GA,253,Seminole
2005,07-12-2006,1800,6,2130,28.1,C,43.7856,-101.9833,SD,,
2009,07-24-2000,1224,7,1224,28.18,C,31.7039,-82.5382,GA,161,Jeff Davis
2009,05-15-2000,1545,3,1545,28.19,C,33.8124,-82.9759,GA,221,Oglethorpe
2009,07-18-2000,1259,14,1259,28.3,C,30.8467,-82.0191,GA,49,Charlton
2010,05-27-1992,500,4,1230,28.4,C,31.258,-81.7174,GA,127,Glynn
2009,05-04-2002,1530,14,1530,28.5,C,32.6292,-81.5251,GA,251,Screven
2009,07-15-2000,1820,18,1820,28.73,C,33.2817,-85.0985,GA,149,Heard
2008,09-05-2007,1200,19,1800,28.8,C,43.25064,-116.14117,ID,1,Ada
2007,08-10-2006,,3,,28.81,C,43.8385,-118.89167,OR,,
2009,05-13-2001,1540,2,1540,28.85,C,34.2073,-85.0052,GA,15,Bartow
2009,04-27-2010,1400,17,1800,28.9,C,28.82942,-80.828019,FL,,
2005,09-26-1992,1631,13,2000,29,C,41.73333333,-119.2166667,NV,,
2008,08-23-2007,1200,19,1800,29,C,43.25347,-116.17756,ID,1,Ada
2009,05-01-2005,1319,8,1534,29,C,34.269769,-85.485087,AL,19,Cherokee
2009,08-12-2010,1744,4,2055,29,C,45.9749,-105.628097,MT,17,Custer
2009,05-30-2000,1555,14,1555,29.44,C,34.0181,-83.1633,GA,221,Oglethorpe
2010,05-16-1995,1900,12,,29.67,C,32.7666,-82.2965,GA,107,Emanuel
2005,09-06-2000,1000,6,1500,30,C,43.63141,-102.56404,SD,,
2005,08-24-1994,1545,17,1745,30,C,42.58333333,-100.75,NE,,
2005,07-16-1994,1730,1,2030,30,C,40.51666667,-115.3166667,NV,,
2005,07-23-1995,1600,2,2030,30,C,41.55,-102.2666667,NE,,
2005,08-30-1999,1400,11,2300,30,C,47.616,-108.167,MT,,
2005,06-18-2000,1500,4,1900,30,C,31.651,-111.433,AZ,,
2005,08-02-2000,1400,1,1700,30,C,48.46666667,-104.5,MT,,
2005,07-11-2001,1300,18,1800,30,C,41.83361111,-119.2686111,NV,,
2005,07-07-2001,1300,16,2000,30,C,41.84388889,-119.6633333,NV,,
2005,05-30-2002,130,6,1800,30,C,26.328,-97.35,TX,,
2005,05-30-2002,1200,9,1800,30,C,26.2586,-97.373,TX,,
2005,07-30-2007,900,10,900,30,C,29.96555556,-93.68638889,LA,,
2005,08-08-2008,1100,15,1200,30,C,46.73,-119.2952778,WA,,
2006,07-20-1992,1934,10,2245,30,C,32.19868205,-110.1632658,AZ,3,Cochise
2006,05-15-1993,1354,15,1945,30,C,32.13903799,-109.4671349,AZ,3,Cochise
2006,05-26-1993,1440,13,1800,30,C,31.82782213,-110.7987074,AZ,19,Pima
2006,08-05-1993,1604,7,2000,30,C,31.64882603,-109.858703,AZ,3,Cochise
2006,08-14-1996,,7,,30,C,44.73056,-119.81949,OR,69,Wheeler
2006,07-15-1993,1607,13,2130,30,C,32.69532021,-110.5432061,AZ,21,Pinal
2007,06-30-1994,1200,14,1925,30,C,35.22600908,-113.9023919,AZ,15,Mohave
2007,08-07-2006,,6,,30,C,44.43833,-118.85417,OR,23,Grant
2007,07-14-2007,,18,,30,C,45.238,-118.2732,OR,61,Union
2008,08-24-2002,1500,9,1600,30,C,46.92972222,-103.6108333,ND,7,Billings
2009,05-12-2007,1335,13,2230,30,C,33.389902,-87.310543,AL,125,Tuscaloosa
2009,05-13-2007,1538,9,1808,30,C,33.129473,-86.130481,AL,27,Clay
2009,06-16-2007,1224,17,1950,30,C,33.145395,-86.23381,AL,121,Talladega
2009,07-25-2008,1352,13,1550,30,C,33.871757,-87.418202,AL,127,Walker
2009,08-22-2006,1515,12,1716,30,C,33.224225,-87.63808,AL,125,Tuscaloosa
2009,07-01-2006,955,13,1453,30,C,33.414697,-87.014166,AL,73,Jefferson
2009,06-27-2000,1410,12,1410,30,C,30.9159,-83.9557,GA,275,Thomas
2009,07-16-2000,1406,17,1406,30,C,33.7782,-83.2019,GA,221,Oglethorpe
2009,06-14-2009,1,2,1,30,C,34.514167,-103.66,NM,9,Curry
2009,05-31-2009,1900,18,1900,30,C,32.8933,-103.4282,NM,25,Lea
2009,06-27-2009,1400,18,1400,30,C,34.150556,-103.315,NM,41,Roosevelt
2010,07-05-2007,1630,16,1630,30,C,42.44023696,-104.7338545,WY,,
2010,06-18-2006,1905,8,1905,30,C,41.18334879,-104.0654773,WY,,
2010,08-07-2002,1200,15,1300,30,C,44.12592052,-104.6300536,WY,,
2010,07-28-2010,1700,20,1700,30,C,27.1674,-80.3743,FL,85,Martin
2010,09-16-2010,1410,14,1410,30,C,29.0998,-82.5961,FL,75,Levy
2010,06-18-2010,1405,8,1405,30,C,27.8525,-82.0136,FL,105,Polk
2010,06-27-2010,2000,11,2000,30,C,29.3068,-82.7658,FL,75,Levy
2010,07-30-2010,400,11,2100,30,C,35.14183333,-76.58533333,NC,137,Pamlico
2009,07-16-2000,1726,13,1726,30.1,C,31.1046,-84.6346,GA,201,Miller
2009,06-04-2002,1631,9,1631,30.1,C,31.9438,-82.2162,GA,279,Toombs
2010,07-29-2010,1530,3,1530,30.2,C,30.4185,-82.6183,FL,23,Columbia
2010,07-18-1994,2230,8,,30.24,C,31.121,-82.0979,GA,25,Brantley
2008,07-29-2005,856,9,2300,30.3,C,42.8589,-112.5903,ID,,
2010,07-30-1993,1400,14,1530,30.62,C,32.0642,-83.4911,GA,315,Wilcox
2009,06-01-2002,1512,18,1512,30.66,C,32.5606,-81.3634,GA,103,Effingham
2009,06-15-2002,1158,11,1158,30.74,C,31.9441,-83.3508,GA,315,Wilcox
2008,08-15-2000,1230,1,2100,31,C,44.00583333,-111.1894444,ID,43,Fremont
2009,08-05-2010,1751,19,2300,31,C,43.92061,-112.1285,ID,51,Jefferson
2009,05-13-2002,1111,16,1111,31,C,31.4295,-81.8965,GA,305,Wayne
2010,07-14-2010,1850,15,1850,31,C,30.2698,-85.7017,FL,5,Bay
2010,06-03-1994,300,6,1604,31.11,C,33.6583,-83.48,GA,211,Morgan
2009,06-05-2002,1403,16,1403,31.29,C,32.2521,-81.4071,GA,103,Effingham
2009,05-28-2010,1859,16,2130,31.4,C,30.145,-84.7680556,FL,77,Liberty
2010,07-09-1994,1700,17,1939,31.4,C,30.7612,-82.5966,GA,65,Clinch
2009,05-22-2000,1905,16,1905,31.42,C,31.4123,-81.8966,GA,305,Wayne
2010,07-23-1995,1515,12,1751,31.49,C,31.7903,-84.6996,GA,243,Randolph
2008,10-27-1999,1200,1,1800,31.5,C,43.22575,-116.15703,ID,1,Ada
2010,06-26-1995,900,9,1407,31.5,C,31.5668,-82.6784,GA,69,Coffee
2010,06-02-1994,1630,20,1850,31.73,C,33.1951,-82.1536,GA,33,Burke
2010,07-25-1993,1545,18,1930,31.77,C,33.2467,-82.7463,GA,141,Hancock
2005,08-08-2006,1000,8,1430,32,C,30.59555556,-82.49805556,GA,,
2009,06-15-2007,1720,13,2232,32,C,32.874631,-86.486515,AL,21,Chilton
2009,03-20-2010,700,13,1700,32,C,29.57055556,-94.47944444,TX,,
2009,07-11-2000,1920,9,1920,32.05,C,30.4868,-82.12,GA,49,Charlton
2009,07-13-2000,1015,7,1015,32.25,C,31.0694,-81.599,GA,39,Camden
2010,09-25-2010,1508,14,1508,32.3,C,27.0484,-82.0195,FL,27,De Soto
2010,03-08-1992,600,6,1920,32.5,C,34.0871,-84.4674,GA,57,Cherokee
2010,07-16-1995,1930,19,2055,32.6,C,33.3324,-82.7059,GA,301,Warren
2009,06-17-2000,1634,2,1634,32.9,C,30.8808,-81.5209,GA,39,Camden
2008,08-17-2002,1200,19,2130,33,C,34.53166667,-93.96166667,AR,,
2009,07-15-2010,1400,10,1600,33,C,33.7272222,-108.3925,NM,3,Catron
2009,05-16-2007,2132,18,2132,33,C,34.6362,-112.3676,AZ,,
2009,07-11-2000,1836,14,1836,33,C,30.9326,-82.6367,GA,65,Clinch
2009,07-11-2000,1226,18,1226,33.04,C,31.8926,-83.0016,GA,271,Telfair
2008,08-24-2007,1200,18,1800,33.1,C,43.24549,-116.16318,ID,,
2010,06-18-1995,1915,17,2029,33.1,C,31.927,-83.3307,GA,315,Wilcox
2009,06-02-2006,1540,19,1640,33.2,C,31.544352,-87.151363,AL,35,Conecuh
2009,06-18-2000,910,11,910,33.23,C,33.3668,-83.0541,GA,141,Hancock
2005,08-12-2006,1055,8,1800,33.6,C,43.7742,-101.9247,SD,,
2008,08-24-2007,1200,17,1800,33.6,C,43.23979,-116.14295,ID,1,Ada
2005,09-11-2006,130,2,1300,34,C,47.88277778,-106.2230556,MT,,
2009,06-18-2010,900,5,1500,34,C,30.1861111,-84.4711111,FL,129,Wakulla
2010,07-26-1993,1030,19,1530,34,C,31.6522,-81.4735,GA,191,McIntosh
2009,06-24-2000,1955,15,1955,34.15,C,32.8521,-81.5842,GA,251,Screven
2005,08-04-1996,1710,5,1940,34.2,C,39.8218,-104.7975,CO,,
2009,07-22-2000,801,13,801,34.4,C,31.4638,-81.9966,GA,305,Wayne
2009,05-13-2001,1255,15,1255,34.64,C,31.0869,-82.7368,GA,65,Clinch
2008,08-13-2001,1200,3,1800,34.7,C,43.27799,-116.30229,ID,1,Ada
2005,06-01-2002,900,14,1800,35,C,43.58666,-103.36492,SD,,
2005,07-23-2008,1440,2,1820,35,C,25.6775,-80.5164,FL,,
2005,07-20-1996,1100,9,1800,35,C,47.557,-108.85,MT,,
2005,06-18-1997,1930,7,2115,35,C,42.75,-100.75,NE,,
2005,07-03-2001,1830,11,2330,35,C,37.39444444,-105.7764,CO,,
2005,06-05-2004,1345,9,2300,35,C,46.76277778,-119.5694444,WA,,
2006,08-04-1999,,16,,35,C,44.92042,-119.48461,OR,23,Grant
2008,05-27-2000,1550,11,2200,35,C,43.37,-103.6683333,SD,,
2008,06-20-2005,1100,3,2100,35,C,33.38305556,-107.8830556,NM,51,Sierra
2009,04-24-2009,1327,6,1700,35,C,33.768269,-85.943538,AL,15,Calhoun
2009,05-07-2007,1343,17,2000,35,C,30.480144,-87.45528,AL,3,Baldwin
2009,06-14-2007,1424,11,1612,35,C,34.952415,-87.539714,AL,77,Lauderdale
2009,06-17-2007,938,7,1307,35,C,33.568864,-86.351248,AL,115,St. Clair
2009,08-01-2006,1535,6,1905,35,C,32.779949,-87.480814,AL,65,Hale
2009,08-03-2006,1058,13,1300,35,C,33.646921,-85.457084,AL,29,Cleburne
2009,08-01-2006,1300,1,1515,35,C,31.399519,-88.099585,AL,129,Washington
2009,06-21-2006,1050,19,1710,35,C,31.852567,-87.759539,AL,25,Clarke
2009,08-06-2003,2359,4,2359,35,C,34.44666665,-95.52633333,OK,127,Pushmataha
2009,03-17-2003,2330,12,2330,35,C,34.60416667,-95.60166664,OK,121,Pittsburg
2009,09-05-2007,1000,2,1000,35,C,37.14225,-83.95544,KY,125,Laurel
2009,06-13-2009,1511,8,1511,35,C,33.79576,-103.21039,NM,35,Otero
2010,06-26-2007,1600,16,1600,35,C,44.95594332,-73.64311302,NY,19,Clinton
2010,07-30-2010,1350,13,1350,35,C,28.2389,-80.8948,FL,97,Osceola
2010,05-29-2010,1115,9,1115,35,C,28.8231,-82.397,FL,17,Citrus
2010,06-14-1992,,10,,35,C,65.166664,-150.949996,AK,,
2010,06-21-2010,,5,,35,C,32.773037,-86.449231,AL,21,Chilton
2010,07-11-2010,,19,,35,C,32.805123,-85.843625,AL,123,Tallapoosa
2010,06-19-1996,1525,5,1740,35,C,31.0008,-81.5996,GA,39,Camden
2009,08-19-2000,1720,5,1720,35.07,C,32.1498,-83.2862,GA,91,Dodge
2009,07-13-2002,1700,4,1700,35.2,C,30.90565193,-82.77780622,GA,65,Clinch
2010,07-22-1993,2100,11,,35.36,C,31.4294,-81.616,GA,127,Glynn
2009,08-08-2000,845,6,845,35.63,C,32.8358,-84.361,GA,293,Upson
2005,07-29-2006,1900,11,2100,36,C,30.72472222,-82.12555556,GA,,
2009,08-14-2009,1701,6,1914,36,C,31.851697,-87.878858,AL,25,Clarke
2009,07-30-2000,1347,19,1347,36,C,33.2808,-82.2353,GA,245,Richmond
2010,06-23-2010,1150,6,1150,36,C,29.8971,-81.5667,FL,109,St. Johns
2010,08-24-1993,1400,7,2120,36,C,30.7272,-83.5777,GA,27,Brooks
2010,07-20-1995,1020,11,1645,36,C,32.9044,-84.5241,GA,293,Upson
2010,06-15-1995,1336,4,1405,36.79,C,33.0578,-81.8681,GA,33,Burke
2005,08-03-2002,1645,5,1730,37,C,42.5124,-100.2654,NE,,
2009,08-10-2010,1402,11,1623,37,C,45.67,-107.1953,MT,,
2009,07-09-2010,1338,12,2100,37,C,42.2447,-114.4842,ID,83,Twin Falls
2009,08-02-2007,1412,1,,37,C,46.52,-85.59,MI,95,Luce
2009,06-17-2009,1609,6,1609,37,C,34.118889,-103.307222,NM,41,Roosevelt
2010,05-28-2010,1625,17,1625,37,C,29.1053,-82.6096,FL,75,Levy
2008,08-28-2007,1200,2,1800,37.4,C,43.25796,-116.07689,ID,1,Ada
2009,03-26-2002,1815,10,1815,37.4,C,30.8297,-82.5568,GA,65,Clinch
2005,06-28-1997,15,12,330,37.5,C,42.48333333,-100.6852778,NE,,
2009,03-29-2002,1730,17,1730,37.98,C,33.521,-82.912,GA,265,Taliaferro
2005,09-08-1995,1310,7,1800,38,C,29.6477778,-85.1241667,FL,,
2009,07-02-2006,2115,8,2300,38,C,31.325466,-87.573853,AL,99,Monroe
2009,04-15-2001,1852,4,1852,38,C,30.7612,-82.5966,GA,65,Clinch
2009,08-29-2002,1605,5,1605,38,C,34.27392876,-84.71125967,GA,15,Bartow
2009,06-08-2009,1408,6,1408,38,C,32.772597,-108.1932,NM,17,Grant
2009,08-03-2002,1500,4,1500,38.04,C,32.5948009,-83.4879342,GA,289,Twiggs
2009,08-15-2002,1524,5,1524,38.5,C,32.67184047,-81.65912277,GA,251,Screven
2009,08-21-2000,1812,5,1812,38.65,C,31.0694,-81.6389,GA,39,Camden
2009,08-02-2002,1716,10,1716,38.92,C,32.44407919,-82.74461647,GA,175,Laurens
2009,08-21-2007,1555,20,2010,39,C,31.938012,-87.173227,AL,131,Wilcox
2009,06-18-2002,710,6,710,39,C,31.8239,-82.4377,GA,1,Appling
2010,07-28-2010,1500,17,1500,39,C,29.0637,-81.0823,FL,127,Volusia
2010,07-18-2010,1535,19,1535,39,C,28.7373,-81.1562,FL,117,Seminole
2009,03-06-2001,1915,9,1915,39.01,C,33.0928,-83.9333,GA,207,Monroe
2008,08-29-2007,1200,16,1800,39.1,C,43.26057,-116.14257,ID,1,Ada
2005,06-23-1997,1230,18,2330,39.7,C,47.621,-107.147,MT,,
2005,07-19-2002,1315,14,2000,40,C,44.64503,-104.68954,WY,,
2005,08-04-1992,1900,15,2100,40,C,47.7,-107.1833333,MT,,
2005,10-05-1993,1530,2,2000,40,C,42.9,-121.698,OR,,
2005,10-03-1994,1800,17,1920,40,C,34.65833333,-94.76666667,OK,,
2005,08-20-1995,1700,12,2030,40,C,47.431,-107.826,MT,,
2005,08-31-1995,130,16,900,40,C,41.66666667,-102.1666667,NE,,
2005,08-31-1995,130,5,930,40,C,41.65,-102.1666667,NE,,
2005,08-23-1995,1800,5,1935,40,C,42.55,-100.5833333,NE,,
2005,08-24-1998,900,8,1800,40,C,41.75,-103.6166667,NE,,
2005,09-27-1999,1500,16,,40,C,42.4985,-119.6897,OR,,
2005,11-01-2000,1600,20,2130,40,C,39.261,-90.7528,MO,,
2005,09-17-2000,1830,14,2000,40,C,41.8,-102.3333333,NE,,
2005,05-07-2007,1300,3,1800,40,C,30.78472222,-82.58916667,GA,,
2006,08-21-1994,1146,16,1413,40,C,31.65560138,-109.248333,AZ,3,Cochise
2006,05-09-1996,1630,6,2100,40,C,33.33832963,-90.00504686,MS,15,Carroll
2006,07-09-1994,,12,,40,C,44.73373,-119.42662,OR,23,Grant
2006,07-14-2002,,18,,40,C,44.90805,-120.11999,OR,69,Wheeler
2006,08-09-1993,1530,5,1900,40,C,32.6645194,-110.8792896,AZ,21,Pinal
2007,08-14-1994,1154,7,1900,40,C,32.54368923,-110.9699774,AZ,21,Pinal
2008,06-10-2000,800,7,1800,40,C,43.35,-103.6683333,SD,,
2008,07-31-2000,815,8,1500,40,C,28.35446,-96.4,TX,,
2009,07-01-2007,1453,20,1705,40,C,33.545969,-85.562253,AL,29,Cleburne
2009,07-09-2008,1005,19,1630,40,C,32.90628,-86.43109,AL,37,Coosa
2009,06-03-2006,1530,16,1900,40,C,31.0199,-86.742544,AL,53,Escambia
2009,07-28-2006,1920,1,2145,40,C,31.107145,-87.437979,AL,53,Escambia
2009,08-09-2006,1315,1,1625,40,C,34.900618,-87.025874,AL,83,Limestone
2009,06-25-2006,1000,19,1510,40,C,32.893363,-85.947557,AL,123,Tallapoosa
2009,07-04-2002,1645,7,1645,40,C,34.34824118,-84.98969716,GA,15,Bartow
2009,06-13-2009,1448,17,1448,40,C,33.66262,-103.49989,NM,41,Roosevelt
2009,06-17-2009,1025,19,1025,40,C,34.179258,-103.677782,NM,41,Roosevelt
2010,05-07-2002,1100,3,1215,40,C,44.58164964,-104.6959999,WY,,
2010,04-11-2007,820,8,1400,40,C,35.14765,-88.07445,TN,71,Hardin
2010,07-28-2010,1700,1,1700,40,C,27.1714,-80.3775,FL,85,Martin
2010,06-17-2010,1350,5,1350,40,C,27.1177,-80.2355,FL,85,Martin
2010,08-02-1999,,15,,40,C,42.25,-75.16666666,NY,,
2010,08-06-2010,,5,,40,C,33.644348,-87.710095,AL,57,Fayette
2010,06-18-1997,1200,2,,40,C,31.4467,-82.3173,GA,5,Bacon
2009,06-04-2002,1553,10,1553,40.48,C,32.4924,-82.5804,GA,283,Treutlen
2005,06-18-2004,1630,14,1830,40.5,C,47.0327188,-99.4743788,ND,,
2009,06-06-2010,1617,15,1630,40.5,C,33.6769444,-108.46,NM,3,Catron
2009,07-17-2002,815,10,815,40.5,C,31.25390987,-81.3665486,GA,127,Glynn
2009,07-16-2009,1535,2,1535,40.9,C,33.7177,-105.503097,NM,27,Lincoln
2005,07-30-2007,922,7,922,41,C,25.7244,-80.5944,FL,,
2008,05-21-2002,1000,7,1600,41,C,31.15194444,-86.44861111,AL,,
2009,07-28-2010,2045,12,2045,41,C,34.56850001,-95.53533332,OK,127,Pushmataha
2010,07-28-2010,1312,6,1312,41,C,27.8266,-80.5758,FL,9,Brevard
2005,07-29-1997,1730,13,2330,41.2,C,29.133,-95.2917,TX,,
2009,05-27-2000,1345,9,1345,41.29,C,32.9383,-83.315,GA,9,Baldwin
2010,06-08-1993,2000,6,,41.75,C,30.8303,-84.5928,GA,87,Decatur
2010,07-09-1993,1100,7,1500,41.96,C,33.2124,-82.7257,GA,125,Glascock
2009,06-24-2006,1130,18,1545,42,C,33.432905,-86.00119,AL,121,Talladega
2009,08-22-2002,1239,2,1239,42.11,C,31.36557941,-82.42842917,GA,303,Washington
2009,07-25-2010,1554,5,2200,42.4,C,41.3522222,-121.118333,CA,49,Modoc
2009,06-16-2002,1700,4,1700,42.4,C,30.9327,-82.979,GA,173,Lanier
2009,05-16-2001,1045,9,1045,42.48,C,32.2528,-83.9144,GA,93,Dooly
2009,06-02-2009,1324,20,1324,42.5,C,36.2775,-104.743611,NM,33,Mora
2009,05-16-2001,1230,5,1230,42.81,C,32.2188,-84.5814,GA,197,Marion
2009,08-13-2001,1040,9,1040,43.1,C,30.401,-82.0807,GA,49,Charlton
2009,05-11-2002,1046,10,1046,43.75,C,31.3782,-82.5777,GA,299,Ware
2005,08-20-1998,1945,12,2100,44,C,47.6,-111.3,MT,,
2005,06-20-2004,345,5,2000,44,C,29.68972222,-93.88638889,TX,,
2006,07-29-1998,,16,,44,C,44.34818,-119.55197,OR,23,Grant
2007,09-04-2006,,14,,44,C,45.03283,-118.99217,OR,59,Umatilla
2009,09-16-2010,1100,18,2300,44,C,45.21278,-105.61287,MT,75,Powder River
2010,04-10-2010,1355,3,1355,44,C,30.0952,-85.4703,FL,5,Bay
2008,08-23-2007,1200,3,1800,44.1,C,43.26274,-116.17612,ID,1,Ada
2009,08-27-2010,1600,4,2300,44.2,C,43.8469444,-104.748056,WY,45,Weston
2009,07-18-2000,1700,14,1700,44.66,C,33.6411,-83.3441,GA,133,Greene
2005,05-22-1995,1630,11,2100,44.8,C,40.18333333,-109.5833333,UT,,
2009,08-12-2009,1253,5,1524,44.8,C,31.851697,-87.878858,AL,25,Clarke
2005,07-23-1992,1325,20,1500,45,C,31.78333333,-111.45,AZ,,
2005,08-07-2006,1930,6,2100,45,C,47.12305556,-107.3394444,MT,,
2006,06-29-1996,1415,11,1930,45,C,32.10943831,-109.4483527,AZ,3,Cochise
2006,08-29-1994,1438,15,2050,45,C,31.87848518,-109.9032743,AZ,3,Cochise
2006,07-12-2002,,14,,45,C,43.30818,-123.13869,OR,19,Douglas
2008,08-01-2005,1607,3,2200,45,C,43.2189,-104.5564,WY,27,Niobrara
2009,08-20-2007,1139,1,1329,45,C,32.764225,-85.636122,AL,123,Tallapoosa
2009,08-24-2007,1337,7,1953,45,C,32.848401,-86.431002,AL,37,Coosa
2009,08-09-2006,1425,12,1645,45,C,34.182084,-85.449143,AL,19,Cherokee
2009,07-11-1999,2234,3,,45,C,30.2185683,-89.55464132,MS,45,Hancock
2009,08-13-2000,1400,14,1400,45,C,33.8474,-85.3722,GA,143,Haralson
2009,03-30-2006,1500,3,1500,45,C,40.94940948,-99.50748444,NE,,
2010,08-18-2010,1515,10,1515,45,C,27.5329,-80.8175,FL,93,Okeechobee
2010,06-25-1998,1600,13,1910,45,C,30.8812,-82.7163,GA,65,Clinch
2010,07-10-1993,1900,7,2120,45.53,C,33.1094,-82.3782,GA,163,Jefferson
2007,10-18-1996,1358,12,1630,46,C,44.24828445,-88.95918299,WI,135,Waupaca
2008,07-25-2003,1800,18,1920,46,C,43.745,-102.7283333,SD,103,Pennington
2009,09-12-2010,1330,11,2000,46,C,30.4097222,-84.4972222,FL,73,Leon
2009,08-21-2010,1255,17,2330,46,C,47.1167,-108.8092,MT,69,Petroleum
2010,06-22-1998,1830,16,2230,46,C,30.9497,-82.537,GA,65,Clinch
2005,04-24-2005,1445,15,1600,46.1,C,25.899367,-81.436463,FL,,
2005,04-13-2006,1120,4,1800,46.3,C,25.572586,-80.560081,FL,,
2009,07-04-2002,1305,7,1305,46.7,C,32.04407653,-82.95936727,GA,271,Telfair
2005,06-16-2001,1545,17,1800,47,C,25.98128,-81.31999,FL,,
2008,07-20-2003,1530,7,2359,47,C,39.675,-120.1708333,CA,91,Sierra
2009,05-20-2007,958,2,1645,47,C,32.34407,-85.47762,AL,87,Macon
2009,08-20-2006,1500,13,2130,47,C,34.817984,-88.058678,AL,33,Colbert
2009,07-15-2009,1905,2,1905,47,C,32.781222,-104.551389,NM,15,Eddy
2010,07-17-1993,1100,6,1654,47,C,31.7389,-84.8399,GA,243,Randolph
2010,05-20-1994,2200,16,,47.05,C,32.7666,-82.3982,GA,163,Jefferson
2009,07-22-2000,1613,3,1613,47.34,C,31.3266,-81.777,GA,25,Brantley
2009,06-24-2000,1340,5,1340,47.93,C,33.0065,-81.9703,GA,33,Burke
2007,06-21-1994,1430,6,2000,48,C,43.74700176,-89.24788292,WI,77,Marquette
2009,07-02-2006,1928,1,2341,48,C,32.937188,-86.12053,AL,37,Coosa
2009,07-15-2000,1550,11,1550,48,C,32.956,-85.0338,GA,285,Troup
2009,07-12-2000,1716,16,1716,48.53,C,30.984,-82.6966,GA,65,Clinch
2009,06-13-2000,1215,6,1215,48.6,C,31.2759,-84.1956,GA,205,Mitchell
2009,06-14-2000,1459,15,1459,48.95,C,31.0868,-82.4773,GA,299,Ware
2005,07-03-2008,1607,1,1838,49,C,25.745407,-80.833785,FL,,
2006,08-03-1993,1720,7,,49,C,30.55737056,-89.24260755,MS,47,Harrison
2009,04-10-2010,1200,17,1200,49,C,35.1819,-89.025717,TN,69,Hardeman
2009,07-17-2000,1856,20,1856,49.46,C,31.156,-84.555,GA,201,Miller
2009,06-19-2000,1730,5,1730,49.59,C,32.9038,-82.6427,GA,303,Washington
2009,05-12-2002,1412,5,1412,49.7,C,31.721,-82.2769,GA,1,Appling
2005,07-24-2006,1345,3,2100,50,C,35.3894,-115.7922,CA,,
2005,08-31-1995,130,7,630,50,C,41.65,-102.0833333,NE,,
2005,08-18-1995,1600,18,2100,50,C,42.58333333,-100.85,NE,,
2005,10-06-1997,1000,15,1750,50,C,29.5708,-94.425,TX,,
2005,07-01-2001,1800,7,2100,50,C,41.74722222,-102.3833333,NE,,
2005,07-08-2002,1130,17,2330,50,C,47.599,-106.83,MT,,
2005,05-14-2003,1330,10,1600,50,C,36.058121,-119.509415,CA,,
2005,10-06-2004,1500,13,2000,50,C,31.87237,-81.0202,GA,,
2005,07-29-2005,1315,13,1615,50,C,26.60833333,-80.30972222,FL,,
2005,07-05-2008,230,12,1500,50,C,48.593,-104.159,MT,,
2005,06-29-2008,1300,14,1900,50,C,34.49611111,-80.21916667,SC,,
2006,04-20-1994,1600,13,1809,50,C,32.10166953,-110.4233018,AZ,3,Cochise
2006,07-30-1993,1732,5,2300,50,C,31.58655099,-109.5064231,AZ,3,Cochise
2006,06-21-1994,1608,16,2100,50,C,31.53073928,-109.3559818,AZ,3,Cochise
2006,08-14-1996,,9,,50,C,44.55765,-120.27165,OR,69,Wheeler
2006,09-12-1996,,3,,50,C,45.95399,-117.49694,OR,63,Wallowa
2007,06-28-1992,,6,,50,C,44.76281,-119.544,OR,23,Grant
2007,05-15-1993,735,15,1130,50,C,32.51277048,-109.2267395,AZ,9,Graham
2008,06-21-2005,1405,11,1800,50,C,33.6875,-111.2133333,AZ,7,Gila
2008,06-19-2003,1600,13,2000,50,C,46.0265,-116.9181,ID,,
2008,07-11-1994,1546,17,2015,50,C,45.25,-107.834,MT,,
2009,06-08-2007,1047,9,1635,50,C,31.399341,-88.202174,AL,129,Washington
2009,06-10-2007,1148,3,1453,50,C,31.020447,-86.894734,AL,53,Escambia
2009,07-27-1998,1751,16,2136,50,C,30.44176749,-88.48674894,MS,59,Jackson
2009,05-21-2009,,2,,50,C,43.9528,-123.5014,OR,39,Lane
2009,10-31-2010,1400,20,1930,50,C,43.431906,-107.592617,WY,13,Fremont
2009,09-20-2010,1845,14,1845,50,C,38.8026,-102.774,CO,17,Cheyenne
2009,04-04-2000,1520,19,1520,50,C,30.8126,-82.4772,GA,65,Clinch
2009,08-21-2005,1630,5,1630,50,C,42.04199219,-101.0437317,NE,,
2009,05-31-2009,1332,2,1332,50,C,34.4378,-104.2942,NM,19,Guadalupe
2009,06-01-2009,1300,5,1300,50,C,35.041389,-104.707778,NM,19,Guadalupe
2009,05-15-2009,1735,16,1735,50,C,32.88310139,-103.5517689,NM,25,Lea
2009,06-17-2009,1400,2,1400,50,C,34.135077,-103.53577,NM,41,Roosevelt
2009,10-20-2009,1657,6,1657,50,C,33.87304,-103.32662,NM,41,Roosevelt
2010,08-24-2007,1752,6,,50,C,35.702283,-83.70903,TN,155,Sevier
2010,06-17-2010,1331,3,1331,50,C,29.5274,-82.7161,FL,75,Levy
2010,06-17-2010,1417,6,1417,50,C,28.0745,-82.6732,FL,103,Pinellas
2010,06-18-2010,1620,19,1620,50,C,27.0252,-81.2945,FL,43,Glades
2009,07-17-2000,1527,7,1527,50.55,C,33.7439,-83.2015,GA,221,Oglethorpe
2010,06-15-1996,100,13,1650,50.7,C,31.7895,-82.2165,GA,1,Appling
2005,07-29-2001,1820,6,2000,51,C,25.74271,-81.01487,FL,,
2009,09-09-2009,1633,10,1633,51,C,32.9672,-103.5387,NM,25,Lea
2010,07-23-1996,1630,20,,51,C,31.2068,-82.6373,GA,299,Ware
2009,08-18-2000,1015,6,1015,51.1,C,31.2241,-82.9173,GA,3,Atkinson
2005,04-16-1998,1700,14,2000,52,C,48.345,-100.253,ND,,
2009,07-17-2006,1201,18,1721,52,C,33.189553,-86.40684,AL,121,Talladega
2009,06-01-2010,1400,16,1730,52,C,30.9955556,-93.205,LA,79,Rapides
2008,08-24-2007,1200,13,1800,52.4,C,43.22972,-116.15285,ID,1,Ada
2009,07-16-2009,834,8,834,52.7,C,33.964444,-103.554444,NM,41,Roosevelt
2009,04-04-2000,1520,9,1520,53,C,30.7954,-82.4772,GA,65,Clinch
2009,08-14-2001,1300,6,1300,53,C,46.61496,-85.43754,MI,95,Luce
2009,08-14-2009,1600,7,1600,53.1,C,33.7884,-103.0931,NM,41,Roosevelt
2005,07-27-2002,1641,3,2045,54,C,29.65,-85.1055556,FL,,
2010,06-14-2010,,15,,54,C,30.0334,-85.3667,FL,45,Gulf
2009,06-04-2002,1320,13,1320,54.65,C,31.4299,-83.2541,GA,19,Berrien
2010,07-10-1993,200,17,1850,54.67,C,32.4586,-83.9748,GA,193,Macon
2009,07-06-2002,1330,13,1330,54.8,C,33.29016369,-82.5303937,GA,125,Glascock
2009,08-16-2002,1530,17,1530,54.9,C,32.48595189,-82.7816049,GA,175,Laurens
2006,07-09-1993,1636,14,2100,55,C,31.95123429,-109.5162416,AZ,3,Cochise
2007,07-13-2007,,14,,55,C,44.57222,-119.99583,OR,69,Wheeler
2009,07-26-2006,1328,3,1730,55,C,33.07806,-86.995139,AL,7,Bibb
2009,06-02-2009,1625,15,1625,55,C,35.586411,-104.849894,NM,47,San Miguel
2009,06-14-2009,1728,14,1728,55,C,34.066753,-103.298778,NM,41,Roosevelt
2010,07-29-2010,1200,1,1200,55,C,30.2305,-81.4739,FL,31,Duval
2008,09-05-2007,1200,6,1800,55.6,C,43.24989,-116.14971,ID,1,Ada
2010,06-19-2010,1800,1,1800,55.6,C,27.0521,-82.0088,FL,27,De Soto
2009,08-21-2010,1528,20,2100,56,C,42.58515,-115.90616,ID,73,Owyhee
2006,09-17-1995,,10,,57,C,44.38529,-120.77349,OR,13,Crook
2008,07-30-2003,1225,13,2300,57,C,35.58361111,-118.7005556,CA,,
2009,07-20-2006,1620,20,2015,57,C,32.36514,-86.919462,AL,47,Dallas
2010,07-15-2010,1315,16,1315,57,C,27.9483,-80.5777,FL,9,Brevard
2009,05-13-2001,1300,18,1300,57.58,C,31.6523,-82.0159,GA,305,Wayne
2005,08-01-2004,1300,15,1800,58,C,30.19972222,-89.74638889,LA,,
2009,06-04-2006,1442,11,1915,58,C,31.370038,-87.267022,AL,35,Conecuh
2009,07-18-2006,1501,3,2120,58,C,33.681469,-86.013548,AL,15,Calhoun
2009,06-25-2006,1401,1,1642,58,C,32.081382,-85.335206,AL,5,Barbour
2009,05-23-2000,1540,12,1540,58.2,C,30.8126,-82.6365,GA,65,Clinch
2010,09-16-1993,1700,11,,58.3,C,31.618,-81.9558,GA,305,Wayne
2009,08-02-2002,1345,12,1345,59,C,32.58137161,-82.59386979,GA,107,Emanuel
2005,05-06-2004,1215,11,2100,59.1,C,43.3821,-94.8883,IA,,
2008,10-26-1999,1200,19,1800,59.2,C,43.18543,-116.09931,ID,1,Ada
2009,04-11-2009,1123,20,1238,59.5,C,32.756256,-87.18052,AL,105,Perry
2005,07-31-2005,1105,15,1800,60,C,35.0378,-115.4064,CA,,
2005,06-08-2001,1525,19,2030,60,C,26.08685,-81.34071,FL,,
2005,07-09-1999,1400,13,1900,60,C,41.95,-103.5666667,NE,,
2005,09-07-2001,1430,4,2000,60,C,30.25833333,-89.86666667,LA,,
2006,05-27-1993,1718,16,2200,60,C,32.65083951,-110.77268,AZ,21,Pinal
2007,09-23-1992,,3,,60,C,45.60907,-118.00435,OR,61,Union
2009,05-13-2007,1441,11,2000,60,C,33.354763,-85.43114,AL,111,Randolph
2009,08-27-2007,1508,17,1730,60,C,30.241526,-87.911204,AL,3,Baldwin
2009,08-03-2006,1058,7,1325,60,C,33.646921,-85.457084,AL,29,Cleburne
2009,08-31-1998,2130,20,2314,60,C,31.25408418,-91.21174308,MS,157,Wilkinson
2009,08-22-2010,203,16,1738,60,C,42.93422,-115.75414,ID,73,Owyhee
2009,07-29-2005,1000,3,1000,60,C,41.14151001,-99.76139069,NE,,
2009,09-05-2001,1700,9,1700,60,C,42.65999985,-101.3000031,NE,,
2009,05-15-2009,1607,20,1607,60,C,33.7356,-105.3247,NM,27,Lincoln
2010,06-01-2010,1500,15,1500,60,C,28.2761,-81.9704,FL,105,Polk
2010,08-08-2002,,19,1705,60,C,40.15159607,-101.2280426,NE,,
2009,06-09-2002,935,6,935,60.04,C,31.3443,-83.7753,GA,321,Worth
2009,10-08-2002,926,13,926,60.2,C,30.6702832,-82.1232212,GA,49,Charlton
2007,08-07-2008,,1,,61,C,44.72333,-119.9525,OR,69,Wheeler
2009,06-16-2010,1000,10,1200,61,C,25.8825,-81.1725,FL,,
2005,08-16-2005,1630,18,1930,62,C,29.20138889,-95.20083333,TX,,
2009,04-11-2009,756,9,1145,62,C,33.255627,-87.222301,AL,125,Tuscaloosa
2009,08-20-2001,1435,13,1435,62,C,32.9551,-82.3372,GA,163,Jefferson
2009,07-30-2010,1425,5,1559,62.8,C,43.2967,-102.7064,SD,,
2009,03-03-2001,1445,12,1445,62.8,C,31.2413,-83.3156,GA,19,Berrien
2009,07-10-2000,1357,9,1357,64.5,C,32.2863,-81.3663,GA,103,Effingham
2009,05-27-2000,1354,15,1354,64.76,C,33.1953,-82.9912,GA,141,Hancock
2005,08-21-2002,530,6,1800,65,C,38.14027778,-98.50694444,KS,,
2009,07-03-2006,1432,15,1708,65,C,31.561415,-87.811055,AL,25,Clarke
2009,11-17-1999,1015,14,1400,65,C,32.25799997,-89.37517299,MS,123,Scott
2010,06-13-2007,2025,6,2025,65,C,43.22851419,-75.54751361,NY,65,Oneida
2010,05-10-2000,1410,12,1410,65,C,39.23802795,-78.8825054,WV,27,Hampshire
2010,05-30-2010,1900,5,1900,65,C,30.0043,-83.6449,FL,123,Taylor
2010,05-29-2010,1235,4,1235,65,C,30.0738,-85.3826,FL,45,Gulf
2005,07-05-2006,1347,9,1802,65.5,C,35.3236,-115.5733,CA,,
2010,07-28-2010,1330,17,1330,66.2,C,27.7422,-80.5464,FL,61,Indian River
2009,06-22-2000,1740,5,1740,66.36,C,33.2469,-83.6262,GA,159,Jasper
2010,06-23-1998,1530,12,1824,66.7,C,30.8467,-81.9594,GA,49,Charlton
2005,07-12-2004,1100,11,1100,67,C,29.87166667,-93.75333333,LA,,
2005,08-31-1993,1315,11,1615,68,C,29.166,-95.2167,TX,,
2009,07-26-2009,1955,4,1955,68,C,34.55600001,-95.21416667,OK,127,Pushmataha
2008,08-20-2002,700,2,1235,69,C,46.86222222,-103.6511111,ND,7,Billings
2009,06-02-2002,1541,19,1541,69.6,C,31.5839,-82.4176,GA,5,Bacon
2005,06-04-2000,1625,9,1840,70,C,35.50001,-105.167,NM,,
2006,05-18-1992,1612,17,,70,C,32.9348167,-111.2605285,AZ,21,Pinal
2009,06-28-2006,1524,10,2200,70,C,31.34339,-87.845551,AL,25,Clarke
2009,08-20-2003,2250,10,2250,70,C,36.72196668,-94.67874997,OK,115,Ottawa
2010,07-28-2010,2100,11,2100,70,C,27.6331,-81.1025,FL,93,Okeechobee
2010,07-24-1993,1600,16,1820,70,C,33.0409,-82.5412,GA,163,Jefferson
2009,08-31-2001,2246,7,2246,70.83,C,31.3784,-83.1945,GA,19,Berrien
2009,08-23-2007,922,3,1325,71,C,32.77208,-87.009368,AL,21,Chilton
2005,07-19-2001,1645,4,2100,72,C,42.91833333,-121.6702778,OR,,
2010,06-11-1993,1708,14,1845,72,C,32.9211,-82.9889,GA,303,Washington
2010,09-25-2010,1124,7,1124,73,C,30.399,-85.7441,FL,5,Bay
2005,08-01-2005,700,14,1700,74,C,29.95,-93.75,LA,,
2005,08-29-2007,1530,5,2000,74,C,30.12583333,-84.04166667,FL,,
2009,08-07-2002,1730,16,1730,74.23,C,32.83791468,-84.15711829,GA,293,Upson
2005,06-22-2008,1546,8,1630,75,C,25.5356,-81.0311,FL,,
2005,07-21-1997,1100,17,1800,75,C,46.91666667,-119.2,WA,,
2005,08-14-1999,1930,18,2130,75,C,47.116,-108.5,MT,,
2005,07-07-1999,1600,17,2030,75,C,29.698,-94.0536,TX,,
2005,08-24-2004,1800,12,1830,75,C,41.47083333,-102.4333333,NE,,
2006,07-22-1992,1641,10,2350,75,C,31.56911624,-109.5593821,AZ,3,Cochise
2006,08-03-1994,,7,,75,C,44.79552,-119.18761,OR,23,Grant
2008,07-18-2006,450,6,604,75,C,45.6008,-103.5731,SD,,
2009,08-17-2010,,9,,75,C,45.14556,-121.32694,OR,65,Wasco
2009,06-29-2007,1940,9,2240,75,C,32.373237,-87.465515,AL,105,Perry
2010,07-28-2010,1630,5,1630,75,C,28.4056,-80.9548,FL,95,Orange
2010,06-02-2010,1625,20,1625,75,C,27.0217,-81.1986,FL,43,Glades
2005,08-13-2006,1000,3,1800,76,C,40.12,-95.14,MO,,
2009,02-19-2000,957,14,957,76,C,31.3097,-82.5976,GA,299,Ware
2005,07-27-1994,1830,9,2315,77,C,31.8,-111.417,AZ,,
2005,07-30-2007,917,12,917,77.8,C,25.4244,-81.0033,FL,,
2009,06-07-2007,1330,13,2218,78,C,30.801161,-87.59077,AL,3,Baldwin
2009,06-28-2007,1813,12,2204,78,C,32.378454,-86.648633,AL,85,Lowndes
2009,05-27-2000,1354,17,1354,78.57,C,33.2125,-83.0322,GA,141,Hancock
2009,06-02-2010,1530,10,1630,78.7,C,32.0714,-103.6822,NM,15,Eddy
2008,08-16-2001,1200,13,1800,79.9,C,43.2531,-116.14357,ID,1,Ada
2005,05-18-1992,1440,8,1700,80,C,31.66666667,-111.4333333,AZ,,
2005,07-01-1992,1500,17,2000,80,C,45.85,-119.1666667,OR,,
2005,07-20-1997,1445,14,1800,80,C,35.506,-105.185,NM,,
2005,06-02-1998,900,12,1800,80,C,48.625,-102.997,ND,,
2005,08-30-2002,945,9,1830,80,C,47.608,-108.058,MT,,
2005,08-06-2009,1200,6,1500,80,C,29.09444444,-99.36861111,TX,,
2006,06-30-1994,1546,16,1900,80,C,31.85377137,-109.6763339,AZ,3,Cochise
2006,07-03-1994,1400,11,2200,80,C,31.45821967,-110.2794943,AZ,3,Cochise
2006,08-08-1993,1642,9,1826,80,C,33.22850844,-112.6821436,AZ,13,Maricopa
2006,05-24-1994,300,11,444,80,C,32.85260178,-111.570204,AZ,21,Pinal
2009,08-07-2006,1745,6,2030,80,C,32.080822,-87.990243,AL,91,Marengo
2009,08-28-1999,1616,18,1828,80,C,34.03409542,-89.50153074,MS,13,Calhoun
2009,08-16-2010,2235,7,2235,80,C,34.52749999,-95.58083331,OK,127,Pushmataha
2009,06-17-2009,1400,18,1400,80,C,34.138746,-103.545945,NM,41,Roosevelt
2010,07-24-2002,1130,4,1735,80,C,41.46709829,-104.8093385,WY,,
2010,04-16-2002,1335,5,,80,C,42.41159821,-97.20782471,NE,,
2010,07-29-2010,1445,12,2000,80,C,35.85428333,-76.67888333,NC,187,Washington
2006,05-19-1992,1251,11,2045,82,C,32.76533931,-111.2164007,AZ,21,Pinal
2009,06-29-2010,1349,9,2320,82,C,42.3797,-114.7175,ID,83,Twin Falls
2005,07-23-2009,1600,12,2300,82.7,C,29.41278,-96.18047,TX,,
2009,05-27-2001,1705,16,1705,83,C,34.3101,-84.8613,GA,15,Bartow
2006,09-13-1997,,17,,84,C,45.02874,-118.93846,OR,59,Umatilla
2009,06-26-2006,1702,5,2130,85,C,32.596966,-86.853463,AL,1,Autauga
2009,06-18-1999,1210,7,1650,85,C,34.8349111,-89.7221365,MS,93,Marshall
2009,08-22-2010,1511,20,1535,85.3,C,45.5319,-108.3679,MT,,
2009,07-30-2010,1447,17,1645,86,C,42.76292,-106.61969,WY,25,Natrona
2005,03-23-2005,1724,15,2130,88,C,26.2108,-81.2436,FL,,
2005,08-23-1995,1515,5,1700,88,C,31.783,-111.467,AZ,,
2005,08-09-2005,1315,9,1615,88,C,29.63527778,-94.39944444,TX,,
2005,07-29-2005,1630,2,2100,88,C,29.01277778,-95.28166667,TX,,
2009,06-27-2010,2125,11,2125,88,C,34.255,-95.26733335,OK,127,Pushmataha
2009,05-11-2002,1724,3,1724,89.3,C,31.6352,-82.0963,GA,305,Wayne
2005,08-25-2002,1600,17,1930,90,C,47.21518,-103.24824,ND,,
2009,08-07-2003,1740,11,1740,90,C,34.40716667,-96.0115,OK,5,Atoka
2010,05-26-2010,1340,17,1340,90,C,26.9926,-81.3617,FL,43,Glades
2010,08-14-1994,,19,,90,C,64.783332,-144.53334,AK,,
2010,06-23-1998,1300,5,1445,90.4,C,31.001,-81.9985,GA,49,Charlton
2009,08-07-2010,1239,6,1639,91.5,C,48.2925,-105.4925,MT,,
2008,08-21-2002,1400,5,2000,92,C,31.20833333,-93.89722222,TX,,
2009,08-08-2010,1230,7,2000,92,C,44.6122222,-105.396111,WY,5,Campbell
2009,07-23-2002,1635,14,1635,92.13,C,32.75260143,-82.45708965,GA,167,Johnson
2009,06-14-2010,1600,6,1630,92.7,C,30.3083333,-84.4830556,FL,73,Leon
2008,07-22-2005,1830,7,2200,93,C,34.80194444,-94.58583333,OK,79,Le Flore
2005,09-08-2000,2200,10,2345,94,C,42.64166667,-100.7666667,NE,,
2005,05-21-1993,1000,15,1915,95,C,33.466,-104.4,NM,,
2005,09-08-2006,1300,17,1800,95,C,29.053,-95.21666667,TX,,
2010,04-29-2009,1327,2,1327,95,C,43.78285205,-73.97674461,NY,31,Essex
2009,08-10-2006,1515,6,1855,96,C,32.509738,-86.65101,AL,1,Autauga
2009,10-20-2009,1726,1,1726,96,C,34.070361,-103.070444,NM,41,Roosevelt
2010,05-15-1994,1030,6,1540,96,C,32.0978,-81.5096,GA,29,Bryan
2005,05-27-2006,1630,19,2000,97,C,28.63333333,-80.88333333,FL,,
2005,05-25-2006,1845,20,2000,98.5,C,39.83916667,-104.8058333,CO,,
2005,05-15-2000,1830,3,2100,100,D and above,25.651661,-80.535947,FL,,
2005,06-09-1999,1200,1,1930,100,D and above,29.716,-94.075,TX,,
2005,08-09-2006,1500,5,1900,100,D and above,48.05,-106.5833333,MT,,
2005,05-06-2007,1000,13,1800,100,D and above,30.5125,-82.69861111,FL,,
2006,07-21-1992,1447,20,1804,100,D and above,32.17337043,-110.6950988,AZ,19,Pima
2006,07-30-1996,,6,,100,D and above,45.10128,-119.75266,OR,49,Morrow
2007,08-05-2003,,13,,100,D and above,45.10741,-118.77551,OR,59,Umatilla
2007,06-17-1992,415,4,510,100,D and above,46.08663237,-91.39795307,WI,113,Sawyer
2008,08-24-2003,1900,19,2100,100,D and above,45.5089,-103.3766,SD,,
2009,06-11-2007,1530,4,2000,100,D and above,31.224845,-87.099243,AL,53,Escambia
2009,07-08-2006,1434,15,1957,100,D and above,31.4307,-86.539916,AL,39,Covington
2009,07-04-2004,500,3,500,100,D and above,42.02205658,-101.928688,NE,,
2009,03-22-2009,1422,15,1422,100,D and above,35.77628,-103.94048,NM,21,Harding
2009,05-31-2009,1845,1,1845,100,D and above,33.170445,-103.72143,NM,25,Lea
2009,06-17-2009,1721,4,1721,100,D and above,33.85965219,-103.4656488,NM,41,Roosevelt
2010,06-09-2001,1855,4,,100,D and above,42.87109286,-106.0730208,WY,,
2010,08-08-2010,,13,,101,D and above,31.039863,-86.064307,AL,61,Geneva
2008,06-12-1992,457,19,1900,102,D and above,42.6999,-112.5508,ID,,
2008,08-23-2000,1600,17,2000,103,D and above,43.78833333,-102.7483333,SD,33,Custer
2009,04-28-2006,851,19,1610,103,D and above,31.589892,-87.963868,AL,25,Clarke
2008,08-16-2001,1200,9,1800,103.8,D and above,43.23013,-116.14386,ID,1,Ada
2005,09-02-1996,1500,18,2000,104.1,D and above,39.8802,-105.2103,CO,,
2009,08-28-2001,1312,15,1312,107.2,D and above,32.8695,-82.5,GA,303,Washington
2008,10-26-1999,1200,14,1800,107.7,D and above,43.19044,-116.11201,ID,1,Ada
2005,06-12-2003,715,3,1800,110,D and above,41.36666667,-121.8333333,CA,,
2009,05-14-2007,1734,15,2330,110,D and above,33.067874,-86.208439,AL,37,Coosa
2009,07-25-2009,1704,4,1704,110,D and above,34.3912,-105.65748,NM,57,Torrance
2005,06-22-2008,1546,10,1630,115,D and above,25.57,-81.0281,FL,,
2005,09-05-1992,1630,8,,115,D and above,41.85,-119.2833333,NV,,
2007,08-05-2009,,2,,116.37,D and above,44.93583,-119.75556,OR,69,Wheeler
2010,04-29-2010,1407,20,1407,117,D and above,29.7034,-81.4159,FL,109,St. Johns
2009,06-08-2006,1555,20,1804,118,D and above,31.199122,-86.269737,AL,39,Covington
2009,09-23-2010,1430,16,1800,118,D and above,37.9655556,-79.6316667,VA,17,Bath
2005,08-20-1999,1030,6,2200,119,D and above,42.6313,-113.3074,ID,,
2005,08-21-1995,1830,17,2200,120,D and above,28.8622,-95.4411,TX,,
2005,07-27-1997,830,5,1800,120,D and above,29.633,-94.2667,TX,,
2006,06-16-1993,555,13,1700,120,D and above,32.1684046,-110.1427135,AZ,3,Cochise
2010,11-19-2001,1340,2,1340,120,D and above,37.35158099,-81.30787613,WV,55,Mercer
2009,08-09-2002,920,16,920,120.41,D and above,33.27672897,-82.79320728,GA,141,Hancock
2005,08-03-2002,1500,18,2000,124,D and above,42.563,-100.3245,NE,,
2005,06-07-2004,1600,5,1900,124,D and above,47.60527778,-98.56611111,ND,,
2005,05-27-2006,1200,8,1400,124,D and above,42.5125,-100.7986111,NE,,
2008,09-05-2000,1730,7,2200,127,D and above,42.90666667,-103.59,NE,,
2008,08-16-2001,1200,8,1800,127.9,D and above,43.23276,-116.15862,ID,1,Ada
2005,09-11-1992,1230,19,1630,128,D and above,29.58333333,-94.53333333,TX,,
2009,07-16-2006,1355,13,2000,128,D and above,31.49732,-87.47352,AL,25,Clarke
2009,08-06-2010,10,15,1800,128,D and above,43.2647,-113.6247,ID,13,Blaine
2009,09-05-2006,1100,10,1850,129,D and above,32.621201,-87.27531,AL,105,Perry
2010,09-02-2007,1830,6,,130.5,D and above,35.745317,-84.91025,TN,143,Rhea
2010,07-09-1998,1830,16,,130.62,D and above,30.9837,-81.6595,GA,39,Camden
2008,08-28-2007,1200,7,1800,130.8,D and above,43.26323,-116.10976,ID,1,Ada
2009,07-02-2006,1804,7,2218,131,D and above,33.066851,-86.434337,AL,37,Coosa
2005,08-24-2000,400,18,2100,132,D and above,46.68583333,-119.6825,WA,,
2006,07-20-1992,1345,17,2043,135,D and above,31.87459295,-109.393075,AZ,3,Cochise
2005,09-06-2009,1400,17,1800,137,D and above,34.72861111,-98.59055556,OK,,
2005,09-08-2000,2300,16,2350,140,D and above,42.61388889,-100.7569444,NE,,
2009,07-17-2006,913,18,1456,146,D and above,33.204156,-86.371707,AL,121,Talladega
2008,08-24-2007,1200,9,1800,147,D and above,43.23358,-116.14587,ID,1,Ada
2005,08-06-2008,1002,6,1002,149,D and above,25.6139,-81.1661,FL,,
2005,03-02-2000,800,6,920,150,D and above,32.98,-114.49538,CA,,
2005,06-06-2000,1600,2,,150,D and above,26.2,-81.55833333,FL,,
2005,07-24-2000,1730,16,2230,150,D and above,42.71305556,-100.95,NE,,
2005,01-12-2002,1551,3,1742,150,D and above,38.166,-90.3,MO,,
2009,06-10-2007,1600,6,2100,150,D and above,30.625808,-88.368442,AL,97,Mobile
2009,09-21-2010,300,12,800,150,D and above,42.5709396,-100.866018,NE,,
2009,10-08-2010,1250,9,1936,150,D and above,37.6935,-102.3537,CO,9,Baca
2008,08-16-2001,1200,16,1800,151.5,D and above,43.24708,-116.14957,ID,1,Ada
2009,06-29-2010,1430,19,2100,154,D and above,34.7694444,-76.9838889,NC,31,Carteret
2010,06-16-1995,1900,19,,154.1,D and above,32.3901,-84.3596,GA,249,Schley
2009,10-20-2009,1506,2,1506,155,D and above,32.89266,-103.55486,NM,25,Lea
2006,08-04-1994,,15,,160,D and above,45.56532,-117.63637,OR,63,Wallowa
2007,08-19-1994,1520,20,1709,160,D and above,32.29745115,-111.2957003,AZ,19,Pima
2009,08-06-2006,727,16,1430,160,D and above,33.944309,-85.538972,AL,15,Calhoun
2010,07-15-2010,1448,7,1448,164.1,D and above,27.8771,-80.6266,FL,9,Brevard
2005,08-20-2002,1330,12,1800,170,D and above,25.731831,-80.548948,FL,,
2005,08-03-2002,1400,8,1600,170,D and above,42.45,-100.5,NE,,
2005,08-31-2001,1030,15,1900,175,D and above,25.94797,-81.00236,FL,,
2010,07-25-2007,1646,9,2206,175,D and above,43.58876624,-104.7195588,WY,,
2010,07-30-2010,1215,9,1215,175,D and above,28.2627,-82.0211,FL,105,Polk
2009,08-16-2010,1035,7,1932,176,D and above,41.66942,-107.12969,WY,7,Carbon
2005,05-29-2005,1400,18,2200,177,D and above,35.63277778,-75.73777778,NC,,
2009,08-08-2006,1300,4,2000,177,D and above,32.693061,-87.276729,AL,105,Perry
2009,07-15-2010,1429,8,2000,177.3,D and above,33.1444,-116.5267,CA,73,San Diego
2007,08-15-2007,,10,,179,D and above,45.15972,-118.87611,OR,59,Umatilla
2005,05-06-2007,945,18,1430,180,D and above,25.5556,-80.7569,FL,,
2005,06-19-1995,1730,6,2100,185,D and above,33.466,-104.383,NM,,
2010,07-23-1993,1430,17,1640,185,D and above,33.2981,-82.8285,GA,141,Hancock
2009,05-22-2010,1130,15,1530,191.1,D and above,30.4063889,-84.4761111,FL,73,Leon
2008,06-14-2002,1300,16,2025,194,D and above,44.46805556,-121.4344444,OR,,
2009,08-07-2010,1500,9,1749,199.7,D and above,48.6064,-105.425,MT,,
2005,08-03-1993,1400,4,2030,200,D and above,31.583,-109.5,AZ,,
2005,04-02-1993,1630,17,2200,200,D and above,33.416,-104.4,NM,,
2005,08-23-1995,1500,16,2300,200,D and above,47.65,-106.8,MT,,
2005,07-28-1996,1534,1,1900,200,D and above,44.68333333,-112.1166667,MT,,
2005,06-22-2005,130,16,2200,200,D and above,35.09888889,-114.3763889,AZ,,
2006,05-18-1992,1705,17,1800,200,D and above,32.83951833,-111.2201914,AZ,21,Pinal
2009,05-27-2010,1530,5,2100,200,D and above,42.88111111,-88.13222222,WI,,
2009,04-08-2009,1830,10,1830,200,D and above,35.037817,-104.513967,NM,19,Guadalupe
2009,06-05-2009,1645,14,1645,200,D and above,34.771944,-104.998611,NM,19,Guadalupe
2009,06-17-2009,1300,12,1300,200,D and above,35.6815,-103.571,NM,21,Harding
2009,03-20-2009,2023,18,2023,200,D and above,32.8543,-103.5883,NM,25,Lea
2010,09-29-2007,2000,18,,200,D and above,43.50235918,-104.4665688,WY,,
2010,03-25-2000,1526,1,1526,200,D and above,38.47019436,-80.73267263,WV,67,Nicholas
2010,07-31-2010,1040,2,1040,200,D and above,28.4325,-80.9371,FL,95,Orange
2009,06-05-2000,1415,14,1415,201.8,D and above,32.7672,-84.2185,GA,293,Upson
2009,07-15-2009,1630,12,1630,202,D and above,34.65198,-105.30392,NM,57,Torrance
2009,06-26-2006,1345,6,1730,203,D and above,31.03592,-86.85472,AL,53,Escambia
2009,07-22-2006,1728,20,1800,207,D and above,34.036112,-85.534599,AL,19,Cherokee
2010,08-18-2010,1900,9,2240,209,D and above,43.211944,-104.231667,WY,27,Niobrara
2009,06-29-2010,1500,19,2030,210,D and above,33.5272222,-108.595,NM,3,Catron
2009,08-11-2007,1200,7,1930,212,D and above,33.002366,-87.165369,AL,7,Bibb
2009,06-03-2002,1930,4,1930,215,D and above,32.1321,-81.4487,GA,29,Bryan
2009,03-21-2009,1538,4,1538,220,D and above,34.459444,-104.468056,NM,11,De Baca
2008,07-02-2001,1200,14,1800,220.2,D and above,43.14203,-116.09944,ID,1,Ada
2005,07-17-2007,1600,2,1700,225,D and above,67.53,-142.33,AK,,
2009,06-18-2009,1510,8,1510,226,D and above,36.2166,-103.4962,NM,59,Union
2009,08-26-2001,1025,10,1025,233.2,D and above,32.9209,-82.5816,GA,303,Washington
2005,06-24-2007,1614,19,2359,234,D and above,25.385,-80.7369,FL,,
2005,09-21-2004,1100,9,1600,234,D and above,29.82833333,-93.705,LA,,
2009,07-17-2006,1519,11,2200,234,D and above,32.496709,-86.920597,AL,47,Dallas
2005,05-15-2007,1745,4,1745,238,D and above,25.7083,-80.6825,FL,,
2005,07-07-2000,1300,4,1800,240,D and above,43.53602,-102.5515,SD,,
2008,03-20-2002,1400,1,1800,240,D and above,32.86444444,-86.9875,AL,,
2005,08-31-1998,900,4,1500,250,D and above,29.7,-94,TX,,
2009,08-06-2008,1039,17,1643,250,D and above,32.736114,-87.430033,AL,105,Perry
2009,04-19-2010,1200,12,1800,250,D and above,41.825,-102.5875,NE,,
2009,07-26-2009,1430,1,1430,250,D and above,32.491556,-108.307111,NM,17,Grant
2005,04-13-2006,115,19,1200,255,D and above,48.4684,-104.4876,MT,,
2005,05-10-1994,1500,2,1745,260,D and above,31.783,-111.467,AZ,,
2005,08-27-2003,1500,8,1900,268,D and above,29.94,-93.68,LA,,
2009,04-21-2002,1315,14,1315,270.53,D and above,31.6525,-82.7389,GA,69,Coffee
2009,08-11-2010,1500,3,1530,275,D and above,30.1830556,-84.9769444,FL,77,Liberty
2009,06-29-2009,455,13,455,280,D and above,34.3403,-105.007583,NM,19,Guadalupe
2008,08-29-2007,1200,17,1800,283.9,D and above,43.26911,-116.13945,ID,1,Ada
2005,07-14-1998,1030,10,1900,285,D and above,29.583,-94.4583,TX,,
2008,08-19-2003,1630,14,1800,285,D and above,43.97305556,-102.1686111,SD,103,Pennington
2009,06-17-2009,1400,18,1400,290,D and above,35.478,-103.25192,NM,21,Harding
2009,06-17-2009,1300,5,1300,290,D and above,34.067778,-103.219167,NM,41,Roosevelt
2009,06-22-2009,1515,9,1515,294,D and above,33.63343,-105.74809,NM,27,Lincoln
2005,07-12-2004,1100,3,1100,299,D and above,29.88666667,-93.75833333,LA,,
2005,09-17-2000,1900,17,2200,300,D and above,41.86666667,-102.3333333,NE,,
2005,07-18-2007,1200,7,1900,300,D and above,46.34805556,-119.4686111,WA,,
2006,07-21-1992,1638,6,1904,300,D and above,31.51683403,-109.7339395,AZ,3,Cochise
2008,05-08-2000,1445,19,1700,300,D and above,38.83888889,-78.48416667,VA,171,Shenandoah
2009,07-02-2004,1520,2,1520,300,D and above,41.96396255,-103.9243011,NE,,
2006,08-28-1994,,9,,303,D and above,45.451,-117.46095,OR,63,Wallowa
2008,06-13-2009,1510,7,1904,307,D and above,33.489722,-103.468889,NM,25,Lea
2009,06-27-2006,1125,1,2100,312,D and above,32.156244,-88.152919,AL,23,Choctaw
2008,08-08-2003,1545,19,2115,318.5,D and above,43.15027778,-103.9083333,SD,47,Fall River
2005,03-08-1999,824,12,1030,320,D and above,42.86666667,-100.2333333,NE,,
2005,08-02-2005,900,11,1900,320,D and above,36.54694444,-114.9727778,NV,,
2006,06-27-1993,1325,13,2200,320,D and above,31.46989685,-109.5609043,AZ,3,Cochise
2008,05-05-2008,1200,12,2100,320,D and above,33.986111,-103.78,NM,41,Roosevelt
2005,06-07-2001,1430,5,2330,325,D and above,28.6125,-80.6958333,FL,,
2005,06-15-2001,1755,15,1810,337,D and above,26.18601,-81.04986,FL,,
2005,08-20-2000,1255,9,1630,350,D and above,41.71666667,-102.2166667,NE,,
2009,06-11-2007,1214,11,2000,350,D and above,31.091461,-87.810736,AL,3,Baldwin
2009,08-19-2010,1200,1,1445,350,D and above,29.70972222,-94.00888889,TX,,
2005,05-10-2001,1430,1,2030,360,D and above,35.5,-105.167,NM,,
2008,07-02-2001,1200,10,1800,388.3,D and above,43.13654,-116.07307,ID,1,Ada
2005,07-21-1997,1530,14,,400,D and above,46.899722,-119.25,WA,,
2005,07-13-2002,200,4,1300,400,D and above,46.36666667,-119.6,WA,,
2006,08-01-1994,,8,,400,D and above,45.59505,-117.79808,OR,61,Union
2008,07-09-2005,1315,20,1900,400,D and above,33.68055556,-107.7305556,NM,3,Catron
2009,03-26-2003,1700,6,1700,400,D and above,36.04491667,-94.79791667,OK,1,Adair
2009,07-25-2003,1840,16,1840,400,D and above,41.96396255,-103.9243011,NE,,
2009,06-17-2009,1300,9,1300,400,D and above,35.5635,-103.4413,NM,21,Harding
2009,06-01-2009,1455,4,1455,400,D and above,34.44949,-104.3884,NM,11,De Baca
2009,04-09-2002,1440,3,1440,405.8,D and above,32.6463,-81.4437,GA,251,Screven
2005,07-03-1993,1700,19,2130,410,D and above,46.9,-119.2333333,WA,,
2005,08-20-2006,1600,15,2130,415,D and above,34.71722222,-98.55388889,OK,,
2009,08-09-2010,1905,18,1905,420,D and above,35.00696667,-95.55366669,OK,121,Pittsburg
2005,09-03-1996,830,3,1800,428,D and above,29.16,-95.17,TX,,
2005,07-14-1998,930,14,2030,443,D and above,29.05,-95.25,TX,,
2009,07-16-2009,1735,10,1735,450,D and above,33.6621,-103.6334,NM,41,Roosevelt
2005,08-20-1993,1500,4,,451,D and above,29.675,-85.1083333,FL,,
2005,07-14-1995,1100,7,2200,452.4,D and above,29.6,-94.4667,TX,,
2009,07-31-2010,1510,2,2130,468.8,D and above,42.95008,-106.40406,WY,25,Natrona
2005,05-15-1992,1959,6,,500,D and above,41.73333333,-102.3,NE,,
2005,07-30-1999,1700,19,2300,500,D and above,46.75,-108.7666667,MT,,
2005,09-12-2000,1330,9,2117,500,D and above,42.60416667,-100.7277778,NE,,
2008,09-03-2002,1930,13,2300,500,D and above,45.7353,-103.5846,SD,,
2009,06-13-2009,1448,8,1448,500,D and above,33.759719,-103.409032,NM,41,Roosevelt
2005,06-03-2003,1100,16,1830,512,D and above,29.88083333,-93.468611,LA,,
2009,06-30-2006,1719,6,2334,565,D and above,32.11559,-86.73132,AL,85,Lowndes
2005,10-03-2008,1400,20,1400,565.9,D and above,25.5122,-81.1589,FL,,
2005,08-31-1995,130,12,1000,600,D and above,41.66666667,-102.25,NE,,
2006,07-11-2001,,15,,600,D and above,44.71908,-120.03941,OR,69,Wheeler
2009,06-13-2009,1807,13,1807,600,D and above,34.699167,-104.242222,NM,11,De Baca
2009,07-19-2009,1600,1,1600,600,D and above,35.439167,-104.6815,NM,47,San Miguel
2010,07-29-2000,,3,,600,D and above,43.81666666,-106.5333333,WY,,
2008,10-26-1999,1200,11,1800,630.8,D and above,43.14186,-116.12003,ID,1,Ada
2005,08-20-1999,1700,20,2230,640,D and above,42.76888889,-101.0016667,NE,,
2005,08-07-2005,900,11,1700,640,D and above,29.0425,-95.28194444,TX,,
2006,05-24-1993,1100,12,1730,640,D and above,31.35025852,-109.7677131,AZ,3,Cochise
2009,06-17-2009,1300,4,1300,640,D and above,35.60266,-103.5998,NM,21,Harding
2005,08-23-2000,1355,4,2130,650,D and above,28.9,-95.5283,TX,,
2005,05-30-2009,800,19,1400,665,D and above,35.93333333,-75.81666667,NC,,
2007,09-05-2003,,11,,715,D and above,42.20579,-122.61799,OR,29,Jackson
2009,08-17-2010,2000,8,2200,725,D and above,34.733022,-97.326769,OK,,
2008,08-13-2000,1300,9,1730,800,D and above,45.5497,-103.3002,SD,,
2009,05-31-2009,1335,4,1335,800,D and above,33.14105,-103.71135,NM,25,Lea
2008,09-05-2007,1200,11,1800,806.9,D and above,43.25216,-116.12205,ID,1,Ada
2008,04-15-2004,1,17,1800,813,D and above,47.154167,-101.082222,ND,65,Oliver
2008,04-09-2009,1400,13,2300,831,D and above,31.69555556,-109.1997222,AZ,3,Cochise
2005,05-21-1997,1830,18,,850,D and above,29.8666667,-93.5,LA,,
2009,08-09-2010,1425,12,1435,884,D and above,38.2283333,-119.914167,CA,109,Tuolumne
2005,08-08-1994,1215,1,2110,900,D and above,46.541667,-119.291667,WA,,
2005,08-22-2007,1700,1,2215,900,D and above,29.68388889,-94.03222222,TX,,
2006,06-29-1994,445,12,1600,950,D and above,31.75204052,-110.6134032,AZ,19,Pima
2009,07-23-2000,1424,17,1424,996.67,D and above,31.7039,-82.5583,GA,161,Jeff Davis
2005,09-03-1995,1830,12,2340,1000,D and above,42.61666667,-100.9166667,NE,,
2005,08-24-1998,1,20,800,1000,D and above,41.65,-102.4833333,NE,,
2006,08-04-1994,,6,,1000,D and above,45.0792,-120.1377,OR,69,Wheeler
2008,08-05-2005,1035,19,2135,1000,D and above,27.2036,-97.3653,TX,,
2008,07-29-2006,1533,20,1759,1000,D and above,37.244722,-99.722222,KS,25,Clark
2005,08-03-2005,1411,12,2222,1064,D and above,35.3986,-115.78,CA,,
2006,08-07-1994,1300,6,1300,1100,D and above,34.06470151,-111.295998,AZ,7,Gila
2009,06-13-2009,1630,9,1630,1120,D and above,33.60655,-103.44382,NM,41,Roosevelt
2005,08-01-2005,1445,19,1645,1145,D and above,29.68,-94.14861111,TX,,
2009,10-31-2010,,2,,1200,D and above,40.2084,-102.9614,CO,121,Washington
2005,03-29-1993,1740,5,1850,1284,D and above,34.68333333,-94.73333333,OK,,
2005,07-06-2002,751,11,2100,1293,D and above,42.64972222,-113.4638889,ID,,
2005,02-06-2008,200,7,1500,1387,D and above,29.96916667,-93.63361111,LA,,
2010,07-18-2007,1330,14,1800,1452,D and above,43.206566,-110.412428,WY,,
2005,04-09-2001,1530,5,1930,1500,D and above,42.35972222,-100.3066667,NE,,
2008,08-14-2001,1200,17,1800,1563.7,D and above,43.21876,-116.1564,ID,1,Ada
2009,08-19-2010,1556,9,1930,1582,D and above,44.9625,-121.3625,OR,,
2008,06-10-2008,1723,5,2300,1600,D and above,34.104444,-104.111389,NM,11,De Baca
2006,08-03-1994,,15,,1770,D and above,44.78564,-119.71677,OR,69,Wheeler
2009,05-31-2009,1630,16,1630,1920,D and above,34.47,-104.24,NM,11,De Baca
2005,06-07-2000,1630,2,2000,1947,D and above,25.36472,-80.514005,FL,,
2005,08-18-2003,1430,12,2100,2161,D and above,25.352429,-80.551023,FL,,
2005,03-17-2001,900,11,1700,2344,D and above,28.316,-96.4667,TX,,
2006,07-19-1992,1550,12,2200,2500,D and above,31.49313111,-109.6226623,AZ,3,Cochise
2005,06-20-2002,1330,10,1945,2554,D and above,46.63333333,-100.6166667,ND,,
2005,09-25-1998,1420,11,1930,2620,D and above,38.1125,-98.525,KS,,
2009,05-12-2001,1615,2,1615,2681,D and above,31.1384,-82.8968,GA,65,Clinch
2008,08-01-2000,1200,18,1401,3242,D and above,35.485,-118.5013889,CA,,
2009,05-11-2001,1800,17,1800,3482,D and above,31.395,-81.4159,GA,191,McIntosh
2005,08-24-1998,1,13,1900,3700,D and above,41.55,-102.4333333,NE,,
2009,06-17-2009,1300,16,1300,4000,D and above,35.6815,-103.25192,NM,21,Harding
2005,09-03-2000,930,14,2100,12000,D and above,41.55,-102.0833333,NE,,
2005,07-13-2002,1300,7,1000,10,C,34.81669,-115.69253,CA,,
2005,06-13-2001,1715,11,1800,10,C,25.68604,-81.05209,FL,,
2005,05-29-2006,1000,7,1800,10,C,25.9156,-81.0358,FL,,
2005,09-07-1995,1800,4,1800,10,C,47.366,-107.967,MT,,
2005,06-26-1998,1000,16,1200,10,C,30.6,-82.2502778,GA,,
2005,09-11-1999,1500,19,1,10,C,26.4011111,-80.3088889,FL,,
2005,06-23-1999,1745,15,1930,10,C,47.48,-107.998,MT,,
